{
"type": "FeatureCollection",
"name": "velo",
"crs": { "type": "name", "properties": { "name": "urn:ogc:def:crs:OGC:1.3:CRS84" } },
"features": [
{ "type": "Feature", "properties": { "OBJECTID": 8398, "Objecttype": "VELOSTATION", "Type_velo": "ENKELZIJDIG", "Ligging": "VOETPAD", "Straatnaam": "Godefriduskaai", "Huisnummer": "", "Aanvulling": "thv Q-park", "District": "Antwerpen", "Postcode": "2000", "Objectcode": "VE_0000129", "Gebruik": "IN_GEBRUIK", "Aantal_plaatsen": 36, "Naam": "129 Godefriduskaai" }, "geometry": { "type": "Point", "coordinates": [ 4.408980241805866, 51.22809856261614 ] } },
{ "type": "Feature", "properties": { "OBJECTID": 8399, "Objecttype": "VELOSTATION", "Type_velo": "ENKELZIJDIG", "Ligging": "PLEIN", "Straatnaam": "Koningin Astridplein", "Huisnummer": "", "Aanvulling": "to station 1", "District": "Antwerpen", "Postcode": "2018", "Objectcode": "VE_0000002", "Gebruik": "IN_GEBRUIK", "Aantal_plaatsen": 36, "Naam": "002 Centraal station Astrid 2" }, "geometry": { "type": "Point", "coordinates": [ 4.420714866198774, 51.217677805876271 ] } },
{ "type": "Feature", "properties": { "OBJECTID": 8400, "Objecttype": "VELOSTATION", "Type_velo": "ENKEL-DUBBELZIJDIG", "Ligging": "VOETPAD", "Straatnaam": "Meir", "Huisnummer": "84", "Aanvulling": "", "District": "Antwerpen", "Postcode": "2000", "Objectcode": "VE_0000026", "Gebruik": "IN_GEBRUIK", "Aantal_plaatsen": 33, "Naam": "026 Meir-Antoon Van Dijck" }, "geometry": { "type": "Point", "coordinates": [ 4.412407312236119, 51.218247899171118 ] } },
{ "type": "Feature", "properties": { "OBJECTID": 8401, "Objecttype": "VELOSTATION", "Type_velo": "ENKELZIJDIG", "Ligging": "VOETPAD", "Straatnaam": "Eiermarkt", "Huisnummer": "12", "Aanvulling": "", "District": "Antwerpen", "Postcode": "2000", "Objectcode": "VE_0000019", "Gebruik": "BUITEN_GEBRUIK", "Aantal_plaatsen": 24, "Naam": "019 Eiermarkt" }, "geometry": { "type": "Point", "coordinates": [ 4.404046676085695, 51.219032966400725 ] } },
{ "type": "Feature", "properties": { "OBJECTID": 8402, "Objecttype": "VELOSTATION", "Type_velo": "ENKELZIJDIG", "Ligging": "PARKEERZONE", "Straatnaam": "Groenkerkhofstraat", "Huisnummer": "2", "Aanvulling": "thv Nationalestraat", "District": "Antwerpen", "Postcode": "2000", "Objectcode": "VE_0000020", "Gebruik": "IN_GEBRUIK", "Aantal_plaatsen": 27, "Naam": "020 Groenplaats 2" }, "geometry": { "type": "Point", "coordinates": [ 4.400657929074812, 51.218684790634349 ] } },
{ "type": "Feature", "properties": { "OBJECTID": 8403, "Objecttype": "VELOSTATION", "Type_velo": "ENKELZIJDIG", "Ligging": "VOETGANGERSZONE", "Straatnaam": "Cockerillkaai", "Huisnummer": "", "Aanvulling": "", "District": "Antwerpen", "Postcode": "2000", "Objectcode": "VE_0000035", "Gebruik": "IN_GEBRUIK", "Aantal_plaatsen": 36, "Naam": "035 Cockerillkaai" }, "geometry": { "type": "Point", "coordinates": [ 4.387591742767317, 51.210272979762578 ] } },
{ "type": "Feature", "properties": { "OBJECTID": 8404, "Objecttype": "VELOSTATION", "Type_velo": "ENKEL-DUBBELZIJDIG", "Ligging": "VOETPAD", "Straatnaam": "Paleisstraat", "Huisnummer": "147", "Aanvulling": "", "District": "Antwerpen", "Postcode": "2018", "Objectcode": "VE_0000094", "Gebruik": "IN_GEBRUIK", "Aantal_plaatsen": 33, "Naam": "094 Paleisstraat" }, "geometry": { "type": "Point", "coordinates": [ 4.396243875341884, 51.204725352723209 ] } },
{ "type": "Feature", "properties": { "OBJECTID": 8405, "Objecttype": "VELOSTATION", "Type_velo": "DUBBELZIJDIG", "Ligging": "GROENZONE", "Straatnaam": "Singel", "Huisnummer": "", "Aanvulling": "tssn Singel/Brederodestraat", "District": "Antwerpen", "Postcode": "2018", "Objectcode": "VE_0000012", "Gebruik": "IN_GEBRUIK", "Aantal_plaatsen": 36, "Naam": "012 Brussel" }, "geometry": { "type": "Point", "coordinates": [ 4.390133929205514, 51.199392358461864 ] } },
{ "type": "Feature", "properties": { "OBJECTID": 8406, "Objecttype": "VELOSTATION", "Type_velo": "ENKELZIJDIG", "Ligging": "VOETPAD", "Straatnaam": "Lange Nieuwstraat", "Huisnummer": "105", "Aanvulling": "", "District": "Antwerpen", "Postcode": "2000", "Objectcode": "VE_0000027", "Gebruik": "IN_GEBRUIK", "Aantal_plaatsen": 36, "Naam": "027 Lange Nieuwstraat" }, "geometry": { "type": "Point", "coordinates": [ 4.411640680463491, 51.219527947407038 ] } },
{ "type": "Feature", "properties": { "OBJECTID": 8407, "Objecttype": "VELOSTATION", "Type_velo": "ENKELZIJDIG", "Ligging": "VOETPAD", "Straatnaam": "Belgiëlei", "Huisnummer": "99", "Aanvulling": "", "District": "Antwerpen", "Postcode": "2018", "Objectcode": "VE_0000044", "Gebruik": "IN_GEBRUIK", "Aantal_plaatsen": 36, "Naam": "044 Belgiëlei" }, "geometry": { "type": "Point", "coordinates": [ 4.418357190227442, 51.205829780783553 ] } },
{ "type": "Feature", "properties": { "OBJECTID": 8408, "Objecttype": "VELOSTATION", "Type_velo": "ENKELZIJDIG", "Ligging": "VOETPAD", "Straatnaam": "Mercatorstraat", "Huisnummer": "18", "Aanvulling": "to 18", "District": "Antwerpen", "Postcode": "2018", "Objectcode": "VE_0000006", "Gebruik": "IN_GEBRUIK", "Aantal_plaatsen": 24, "Naam": "006 Premetro Plantin" }, "geometry": { "type": "Point", "coordinates": [ 4.422479328760365, 51.209934450398691 ] } },
{ "type": "Feature", "properties": { "OBJECTID": 8409, "Objecttype": "VELOSTATION", "Type_velo": "DUBBELZIJDIG", "Ligging": "VOETGANGERSZONE", "Straatnaam": "Van Der Meydenstraat", "Huisnummer": "123", "Aanvulling": "", "District": "Borgerhout", "Postcode": "2140", "Objectcode": "VE_0000111", "Gebruik": "IN_GEBRUIK", "Aantal_plaatsen": 30, "Naam": "111 Van Der Meyden" }, "geometry": { "type": "Point", "coordinates": [ 4.427764796459983, 51.210188589575438 ] } },
{ "type": "Feature", "properties": { "OBJECTID": 8410, "Objecttype": "VELOSTATION", "Type_velo": "ENKELZIJDIG", "Ligging": "VOETPAD", "Straatnaam": "Lange Stuivenbergstraat", "Huisnummer": "86-88", "Aanvulling": "to 86-88", "District": "Antwerpen", "Postcode": "2060", "Objectcode": "VE_0000101", "Gebruik": "IN_GEBRUIK", "Aantal_plaatsen": 36, "Naam": "101 Premetro Handel" }, "geometry": { "type": "Point", "coordinates": [ 4.432157536392651, 51.22407308750585 ] } },
{ "type": "Feature", "properties": { "OBJECTID": 8411, "Objecttype": "VELOSTATION", "Type_velo": "ENKELZIJDIG", "Ligging": "PARKEERZONE", "Straatnaam": "Schijnpoortweg", "Huisnummer": "27-29", "Aanvulling": "", "District": "Antwerpen", "Postcode": "2060", "Objectcode": "VE_0000120", "Gebruik": "IN_GEBRUIK", "Aantal_plaatsen": 24, "Naam": "120 Eendracht" }, "geometry": { "type": "Point", "coordinates": [ 4.439225523447577, 51.227604325635532 ] } },
{ "type": "Feature", "properties": { "OBJECTID": 8412, "Objecttype": "VELOSTATION", "Type_velo": "ENKELZIJDIG", "Ligging": "VOETPAD", "Straatnaam": "August Vermeylenlaan", "Huisnummer": "7", "Aanvulling": "to 7", "District": "Antwerpen", "Postcode": "2050", "Objectcode": "VE_0000144", "Gebruik": "IN_GEBRUIK", "Aantal_plaatsen": 36, "Naam": "144 August Vermeylenlaan" }, "geometry": { "type": "Point", "coordinates": [ 4.378698705217168, 51.231408266022896 ] } },
{ "type": "Feature", "properties": { "OBJECTID": 8413, "Objecttype": "VELOSTATION", "Type_velo": "ENKELZIJDIG", "Ligging": "VOETPAD", "Straatnaam": "August Vermeylenlaan", "Huisnummer": "", "Aanvulling": "charles de costerlaan", "District": "Antwerpen", "Postcode": "2050", "Objectcode": "VE_0000145", "Gebruik": "IN_GEBRUIK", "Aantal_plaatsen": 24, "Naam": "145 De Coster" }, "geometry": { "type": "Point", "coordinates": [ 4.37856193645652, 51.227963022811181 ] } },
{ "type": "Feature", "properties": { "OBJECTID": 8414, "Objecttype": "VELOSTATION", "Type_velo": "ENKELZIJDIG", "Ligging": "GROENZONE", "Straatnaam": "Beatrijslaan", "Huisnummer": "42", "Aanvulling": "", "District": "Antwerpen", "Postcode": "2050", "Objectcode": "VE_0000153", "Gebruik": "IN_GEBRUIK", "Aantal_plaatsen": 36, "Naam": "153 Beatrijslaan" }, "geometry": { "type": "Point", "coordinates": [ 4.38558346368546, 51.218389537134378 ] } },
{ "type": "Feature", "properties": { "OBJECTID": 8415, "Objecttype": "VELOSTATION", "Type_velo": "DUBBELZIJDIG", "Ligging": "VOETPAD", "Straatnaam": "Blancefloerlaan", "Huisnummer": "163-165", "Aanvulling": "", "District": "Antwerpen", "Postcode": "2050", "Objectcode": "VE_0000152", "Gebruik": "IN_GEBRUIK", "Aantal_plaatsen": 36, "Naam": "152 Blancefloerlaan" }, "geometry": { "type": "Point", "coordinates": [ 4.375601960721252, 51.220041326115258 ] } },
{ "type": "Feature", "properties": { "OBJECTID": 8416, "Objecttype": "VELOSTATION", "Type_velo": "ENKELZIJDIG", "Ligging": "VOETPAD", "Straatnaam": "Blancefloerlaan", "Huisnummer": "", "Aanvulling": "to frederick van eedenplein", "District": "Antwerpen", "Postcode": "2050", "Objectcode": "VE_0000149", "Gebruik": "IN_GEBRUIK", "Aantal_plaatsen": 36, "Naam": "149 Van Eedenplein" }, "geometry": { "type": "Point", "coordinates": [ 4.386436754377233, 51.220594695933713 ] } },
{ "type": "Feature", "properties": { "OBJECTID": 8417, "Objecttype": "VELOSTATION", "Type_velo": "ENKELZIJDIG", "Ligging": "VOETPAD", "Straatnaam": "Esmoreitlaan", "Huisnummer": "13", "Aanvulling": "thv lodewijk van veltheimlaan", "District": "Antwerpen", "Postcode": "2050", "Objectcode": "VE_0000142", "Gebruik": "IN_GEBRUIK", "Aantal_plaatsen": 36, "Naam": "142 Esmoreitlaan" }, "geometry": { "type": "Point", "coordinates": [ 4.382536667372692, 51.233382098244654 ] } },
{ "type": "Feature", "properties": { "OBJECTID": 8418, "Objecttype": "VELOSTATION", "Type_velo": "ENKELZIJDIG", "Ligging": "VOETPAD", "Straatnaam": "Frederik Van Eedenplein", "Huisnummer": "4", "Aanvulling": "to 4", "District": "Antwerpen", "Postcode": "2050", "Objectcode": "VE_0000148", "Gebruik": "IN_GEBRUIK", "Aantal_plaatsen": 36, "Naam": "148 Verhaerenlaan" }, "geometry": { "type": "Point", "coordinates": [ 4.386227683001466, 51.223077567757713 ] } },
{ "type": "Feature", "properties": { "OBJECTID": 8419, "Objecttype": "VELOSTATION", "Type_velo": "ENKELZIJDIG", "Ligging": "VOETPAD", "Straatnaam": "Gloriantlaan", "Huisnummer": "31", "Aanvulling": "", "District": "Antwerpen", "Postcode": "2050", "Objectcode": "VE_0000143", "Gebruik": "IN_GEBRUIK", "Aantal_plaatsen": 24, "Naam": "143 Melis Stokelaan" }, "geometry": { "type": "Point", "coordinates": [ 4.385861717123061, 51.231048082777242 ] } },
{ "type": "Feature", "properties": { "OBJECTID": 8420, "Objecttype": "VELOSTATION", "Type_velo": "ENKELZIJDIG", "Ligging": "VOETPAD", "Straatnaam": "Gloriantlaan", "Huisnummer": "", "Aanvulling": "thv kastanjedreef", "District": "Antwerpen", "Postcode": "2050", "Objectcode": "VE_0000141", "Gebruik": "IN_GEBRUIK", "Aantal_plaatsen": 36, "Naam": "141 Sint-Anna" }, "geometry": { "type": "Point", "coordinates": [ 4.386889467641562, 51.23518246441423 ] } },
{ "type": "Feature", "properties": { "OBJECTID": 8421, "Objecttype": "VELOSTATION", "Type_velo": "ENKELZIJDIG", "Ligging": "VOETPAD", "Straatnaam": "Thonetlaan", "Huisnummer": "", "Aanvulling": "to jachthaven", "District": "Antwerpen", "Postcode": "2050", "Objectcode": "VE_0000140", "Gebruik": "IN_GEBRUIK", "Aantal_plaatsen": 36, "Naam": "140 Jachthaven LO" }, "geometry": { "type": "Point", "coordinates": [ 4.391622268775782, 51.231309367949798 ] } },
{ "type": "Feature", "properties": { "OBJECTID": 8422, "Objecttype": "VELOSTATION", "Type_velo": "ENKELZIJDIG", "Ligging": "VOETPAD", "Straatnaam": "Halewijnlaan", "Huisnummer": "88", "Aanvulling": "", "District": "Antwerpen", "Postcode": "2050", "Objectcode": "VE_0000147", "Gebruik": "IN_GEBRUIK", "Aantal_plaatsen": 24, "Naam": "147 Halewijnlaan" }, "geometry": { "type": "Point", "coordinates": [ 4.377881230366322, 51.224011736170844 ] } },
{ "type": "Feature", "properties": { "OBJECTID": 8423, "Objecttype": "VELOSTATION", "Type_velo": "ENKELZIJDIG", "Ligging": "VOETPAD", "Straatnaam": "Reinaartlaan", "Huisnummer": "", "Aanvulling": "thv gloriantlaan", "District": "Antwerpen", "Postcode": "2050", "Objectcode": "VE_0000146", "Gebruik": "IN_GEBRUIK", "Aantal_plaatsen": 33, "Naam": "146 Reinaartlaan" }, "geometry": { "type": "Point", "coordinates": [ 4.385874812891715, 51.227678187742235 ] } },
{ "type": "Feature", "properties": { "OBJECTID": 8424, "Objecttype": "VELOSTATION", "Type_velo": "ENKELZIJDIG", "Ligging": "VOETPAD", "Straatnaam": "Waterhoenlaan", "Huisnummer": "12", "Aanvulling": "", "District": "Antwerpen", "Postcode": "2050", "Objectcode": "VE_0000150", "Gebruik": "IN_GEBRUIK", "Aantal_plaatsen": 24, "Naam": "150 Waterhoenlaan" }, "geometry": { "type": "Point", "coordinates": [ 4.381716228955811, 51.220010540993137 ] } },
{ "type": "Feature", "properties": { "OBJECTID": 8425, "Objecttype": "VELOSTATION", "Type_velo": "DUBBELZIJDIG", "Ligging": "VOETPAD", "Straatnaam": "Amsterdamstraat", "Huisnummer": "", "Aanvulling": "thv rijnkaai", "District": "Antwerpen", "Postcode": "2000", "Objectcode": "VE_0000138", "Gebruik": "IN_GEBRUIK", "Aantal_plaatsen": 24, "Naam": "138 Amsterdamstraat" }, "geometry": { "type": "Point", "coordinates": [ 4.403577083498241, 51.231344523861218 ] } },
{ "type": "Feature", "properties": { "OBJECTID": 8426, "Objecttype": "VELOSTATION", "Type_velo": "ENKELZIJDIG", "Ligging": "VOETPAD", "Straatnaam": "Londenstraat", "Huisnummer": "53", "Aanvulling": "", "District": "Antwerpen", "Postcode": "2000", "Objectcode": "VE_0000139", "Gebruik": "IN_GEBRUIK", "Aantal_plaatsen": 21, "Naam": "139 Londenstraat" }, "geometry": { "type": "Point", "coordinates": [ 4.412356042257804, 51.231072460108379 ] } },
{ "type": "Feature", "properties": { "OBJECTID": 8427, "Objecttype": "VELOSTATION", "Type_velo": "DUBBELZIJDIG", "Ligging": "VOETPAD", "Straatnaam": "Sint-Laureiskaai", "Huisnummer": "", "Aanvulling": "", "District": "Antwerpen", "Postcode": "2000", "Objectcode": "VE_0000137", "Gebruik": "IN_GEBRUIK", "Aantal_plaatsen": 36, "Naam": "137 Sint-Laureiskaai" }, "geometry": { "type": "Point", "coordinates": [ 4.405679588040064, 51.229734753565381 ] } },
{ "type": "Feature", "properties": { "OBJECTID": 8428, "Objecttype": "VELOSTATION", "Type_velo": "ENKELZIJDIG", "Ligging": "VOETPAD", "Straatnaam": "Wisselstraat", "Huisnummer": "12", "Aanvulling": "to 12", "District": "Antwerpen", "Postcode": "2000", "Objectcode": "VE_0000060", "Gebruik": "IN_GEBRUIK", "Aantal_plaatsen": 36, "Naam": "060 Grote Markt" }, "geometry": { "type": "Point", "coordinates": [ 4.400472671737623, 51.221574510004366 ] } },
{ "type": "Feature", "properties": { "OBJECTID": 8429, "Objecttype": "VELOSTATION", "Type_velo": "DUBBELZIJDIG", "Ligging": "VOETPAD", "Straatnaam": "Italiëlei", "Huisnummer": "4", "Aanvulling": "thv FOD financien", "District": "Antwerpen", "Postcode": "2000", "Objectcode": "VE_0000127", "Gebruik": "IN_GEBRUIK", "Aantal_plaatsen": 30, "Naam": "127 FOD Financiën" }, "geometry": { "type": "Point", "coordinates": [ 4.41336407699781, 51.22825531865265 ] } },
{ "type": "Feature", "properties": { "OBJECTID": 8430, "Objecttype": "VELOSTATION", "Type_velo": "ENKELZIJDIG", "Ligging": "VOETPAD", "Straatnaam": "Jan Van Rijswijcklaan", "Huisnummer": "86", "Aanvulling": "", "District": "Antwerpen", "Postcode": "2018", "Objectcode": "VE_0000014", "Gebruik": "IN_GEBRUIK", "Aantal_plaatsen": 36, "Naam": "014 Markgrave" }, "geometry": { "type": "Point", "coordinates": [ 4.405680188587366, 51.196711093146789 ] } },
{ "type": "Feature", "properties": { "OBJECTID": 8431, "Objecttype": "VELOSTATION", "Type_velo": "ENKELZIJDIG", "Ligging": "VOETPAD", "Straatnaam": "Sint-Paulusstraat", "Huisnummer": "42", "Aanvulling": "thv lange koepoortstraat", "District": "Antwerpen", "Postcode": "2000", "Objectcode": "VE_0000050", "Gebruik": "IN_GEBRUIK", "Aantal_plaatsen": 21, "Naam": "050 Klapdorp" }, "geometry": { "type": "Point", "coordinates": [ 4.402951502346943, 51.223757806680702 ] } },
{ "type": "Feature", "properties": { "OBJECTID": 8432, "Objecttype": "VELOSTATION", "Type_velo": "ENKELZIJDIG", "Ligging": "VOETPAD", "Straatnaam": "Oudevaartplaats", "Huisnummer": "", "Aanvulling": "thv frankrijklei", "District": "Antwerpen", "Postcode": "2000", "Objectcode": "VE_0000077", "Gebruik": "IN_GEBRUIK", "Aantal_plaatsen": 36, "Naam": "077 Blauwtorenplein" }, "geometry": { "type": "Point", "coordinates": [ 4.409244824045476, 51.212471533265706 ] } },
{ "type": "Feature", "properties": { "OBJECTID": 8433, "Objecttype": "VELOSTATION", "Type_velo": "ENKELZIJDIG", "Ligging": "VOETPAD", "Straatnaam": "Amerikalei", "Huisnummer": "162", "Aanvulling": "graaf van hoorplein thv graaf van hoornstraat", "District": "Antwerpen", "Postcode": "2000", "Objectcode": "VE_0000080", "Gebruik": "IN_GEBRUIK", "Aantal_plaatsen": 36, "Naam": "080 Montigny" }, "geometry": { "type": "Point", "coordinates": [ 4.392966975123548, 51.205956391479063 ] } },
{ "type": "Feature", "properties": { "OBJECTID": 8434, "Objecttype": "VELOSTATION", "Type_velo": "ENKELZIJDIG", "Ligging": "VOETPAD", "Straatnaam": "Desguinlei", "Huisnummer": "246", "Aanvulling": "to 246 oh plein", "District": "Antwerpen", "Postcode": "2018", "Objectcode": "VE_0000040", "Gebruik": "IN_GEBRUIK", "Aantal_plaatsen": 36, "Naam": "040 Desguinlei " }, "geometry": { "type": "Point", "coordinates": [ 4.396321129672755, 51.196848948815664 ] } },
{ "type": "Feature", "properties": { "OBJECTID": 8435, "Objecttype": "VELOSTATION", "Type_velo": "ENKELZIJDIG", "Ligging": "PARKEERZONE", "Straatnaam": "Duinstraat", "Huisnummer": "83-87", "Aanvulling": "", "District": "Antwerpen", "Postcode": "2060", "Objectcode": "VE_0000102", "Gebruik": "IN_GEBRUIK", "Aantal_plaatsen": 36, "Naam": "102 Duinstraat" }, "geometry": { "type": "Point", "coordinates": [ 4.430043657587365, 51.222404830344452 ] } },
{ "type": "Feature", "properties": { "OBJECTID": 8436, "Objecttype": "VELOSTATION", "Type_velo": "DUBBELZIJDIG", "Ligging": "VOETPAD", "Straatnaam": "Lange Dijkstraat", "Huisnummer": "46", "Aanvulling": "thv van aerdtstraat", "District": "Antwerpen", "Postcode": "2060", "Objectcode": "VE_0000126", "Gebruik": "IN_GEBRUIK", "Aantal_plaatsen": 36, "Naam": "126 Lange Dijk" }, "geometry": { "type": "Point", "coordinates": [ 4.4189870052235, 51.228033782151172 ] } },
{ "type": "Feature", "properties": { "OBJECTID": 8437, "Objecttype": "VELOSTATION", "Type_velo": "ENKELZIJDIG", "Ligging": "PLEIN", "Straatnaam": "Nationalestraat", "Huisnummer": "111-113", "Aanvulling": "to 111-113 thv lange vlierstraat", "District": "Antwerpen", "Postcode": "2000", "Objectcode": "VE_0000076", "Gebruik": "IN_GEBRUIK", "Aantal_plaatsen": 24, "Naam": "076 Prekersplein" }, "geometry": { "type": "Point", "coordinates": [ 4.397947454346545, 51.214115970126898 ] } },
{ "type": "Feature", "properties": { "OBJECTID": 8438, "Objecttype": "VELOSTATION", "Type_velo": "ENKELZIJDIG", "Ligging": "VOETPAD", "Straatnaam": "Belgiëlei", "Huisnummer": "157", "Aanvulling": "thv Greterystraat", "District": "Antwerpen", "Postcode": "2018", "Objectcode": "VE_0000043", "Gebruik": "IN_GEBRUIK", "Aantal_plaatsen": 30, "Naam": "043 Grétrystraat" }, "geometry": { "type": "Point", "coordinates": [ 4.415172320892482, 51.203589201572015 ] } },
{ "type": "Feature", "properties": { "OBJECTID": 8439, "Objecttype": "VELOSTATION", "Type_velo": "ENKELZIJDIG", "Ligging": "PLEIN", "Straatnaam": "Burgemeester E. Ryckaertsplein", "Huisnummer": "", "Aanvulling": "NMBS station Berchem", "District": "Berchem", "Postcode": "2600", "Objectcode": "VE_0000008", "Gebruik": "IN_GEBRUIK", "Aantal_plaatsen": 30, "Naam": "008 NMBS Berchem 2" }, "geometry": { "type": "Point", "coordinates": [ 4.433967323600882, 51.200994261151315 ] } },
{ "type": "Feature", "properties": { "OBJECTID": 8440, "Objecttype": "VELOSTATION", "Type_velo": "DUBBELZIJDIG", "Ligging": "VOETPAD", "Straatnaam": "Uitbreidingstraat", "Huisnummer": "578", "Aanvulling": "", "District": "Berchem", "Postcode": "2600", "Objectcode": "VE_0000112", "Gebruik": "IN_GEBRUIK", "Aantal_plaatsen": 36, "Naam": "112 Pretoriastraat" }, "geometry": { "type": "Point", "coordinates": [ 4.436755928483404, 51.203447354703563 ] } },
{ "type": "Feature", "properties": { "OBJECTID": 8441, "Objecttype": "VELOSTATION", "Type_velo": "ENKELZIJDIG", "Ligging": "PARKEERZONE", "Straatnaam": "Karel Rogierstraat", "Huisnummer": "2-4", "Aanvulling": "", "District": "Antwerpen", "Postcode": "2000", "Objectcode": "VE_0000016", "Gebruik": "IN_GEBRUIK", "Aantal_plaatsen": 27, "Naam": "016 Marnixplaats" }, "geometry": { "type": "Point", "coordinates": [ 4.396508465315326, 51.210171110045145 ] } },
{ "type": "Feature", "properties": { "OBJECTID": 8442, "Objecttype": "VELOSTATION", "Type_velo": "ENKELZIJDIG", "Ligging": "PARKEERZONE", "Straatnaam": "Fonteinstraat", "Huisnummer": "70", "Aanvulling": "to 70", "District": "Borgerhout", "Postcode": "2140", "Objectcode": "VE_0000069", "Gebruik": "IN_GEBRUIK", "Aantal_plaatsen": 36, "Naam": "069 Fonteinstraat" }, "geometry": { "type": "Point", "coordinates": [ 4.441988018282119, 51.211273357550617 ] } },
{ "type": "Feature", "properties": { "OBJECTID": 8443, "Objecttype": "VELOSTATION", "Type_velo": "DUBBELZIJDIG", "Ligging": "GROENZONE", "Straatnaam": "Blancefloerlaan", "Huisnummer": "48a", "Aanvulling": "to 48a middenberm thv halewijnlaan", "District": "Antwerpen", "Postcode": "2050", "Objectcode": "VE_0000151", "Gebruik": "IN_GEBRUIK", "Aantal_plaatsen": 36, "Naam": "151 Van Cauwelaert" }, "geometry": { "type": "Point", "coordinates": [ 4.378584846902503, 51.220367469273327 ] } },
{ "type": "Feature", "properties": { "OBJECTID": 8444, "Objecttype": "VELOSTATION", "Type_velo": "ENKELZIJDIG", "Ligging": "VOETPAD", "Straatnaam": "De Keyserlei", "Huisnummer": "", "Aanvulling": "verplaatst nr Anneessenstraat", "District": "Antwerpen", "Postcode": "2018", "Objectcode": "VE_0000024", "Gebruik": "IN_GEBRUIK", "Aantal_plaatsen": 30, "Naam": "024 Opera" }, "geometry": { "type": "Point", "coordinates": [ 4.417735371035468, 51.217936694732806 ] } },
{ "type": "Feature", "properties": { "OBJECTID": 8445, "Objecttype": "VELOSTATION", "Type_velo": "ENKELZIJDIG", "Ligging": "VOETPAD", "Straatnaam": "Grotesteenweg", "Huisnummer": "", "Aanvulling": "thv Boomgaardstraat", "District": "Berchem", "Postcode": "2600", "Objectcode": "VE_0000046", "Gebruik": "IN_GEBRUIK", "Aantal_plaatsen": 36, "Naam": "046 De Merode" }, "geometry": { "type": "Point", "coordinates": [ 4.41560775145259, 51.198996940688431 ] } },
{ "type": "Feature", "properties": { "OBJECTID": 8446, "Objecttype": "VELOSTATION", "Type_velo": "DUBBELZIJDIG", "Ligging": "VOETPAD", "Straatnaam": "Boomgaardstraat", "Huisnummer": "", "Aanvulling": "thv militair hospitaal", "District": "Antwerpen", "Postcode": "2018", "Objectcode": "VE_0000047", "Gebruik": "IN_GEBRUIK", "Aantal_plaatsen": 36, "Naam": "047 Militair Hospitaal" }, "geometry": { "type": "Point", "coordinates": [ 4.42361496228594, 51.201582786102058 ] } },
{ "type": "Feature", "properties": { "OBJECTID": 8447, "Objecttype": "VELOSTATION", "Type_velo": "DUBBELZIJDIG", "Ligging": "PLEIN", "Straatnaam": "Provinciestraat", "Huisnummer": "81", "Aanvulling": "to 81", "District": "Antwerpen", "Postcode": "2018", "Objectcode": "VE_0000119", "Gebruik": "IN_GEBRUIK", "Aantal_plaatsen": 24, "Naam": "119 Ploeg" }, "geometry": { "type": "Point", "coordinates": [ 4.425498633293496, 51.21544693162457 ] } },
{ "type": "Feature", "properties": { "OBJECTID": 8448, "Objecttype": "VELOSTATION", "Type_velo": "ENKELZIJDIG", "Ligging": "VOETPAD", "Straatnaam": "Van Kerckhovenstraat", "Huisnummer": "16", "Aanvulling": "to 16 thv st-norbertusstraat", "District": "Antwerpen", "Postcode": "2060", "Objectcode": "VE_0000125", "Gebruik": "IN_GEBRUIK", "Aantal_plaatsen": 36, "Naam": "125 Sint-Norbertus" }, "geometry": { "type": "Point", "coordinates": [ 4.423404418278521, 51.226063450057488 ] } },
{ "type": "Feature", "properties": { "OBJECTID": 8449, "Objecttype": "VELOSTATION", "Type_velo": "DUBBELZIJDIG", "Ligging": "PLEIN", "Straatnaam": "Mutsaardstraat", "Huisnummer": "", "Aanvulling": "mutsaardplein thv blindestraat", "District": "Antwerpen", "Postcode": "2000", "Objectcode": "VE_0000051", "Gebruik": "IN_GEBRUIK", "Aantal_plaatsen": 36, "Naam": "051 Mutsaardplein" }, "geometry": { "type": "Point", "coordinates": [ 4.406211129585075, 51.222881231110989 ] } },
{ "type": "Feature", "properties": { "OBJECTID": 8450, "Objecttype": "VELOSTATION", "Type_velo": "ENKELZIJDIG", "Ligging": "PLEIN", "Straatnaam": "Fransenplaats", "Huisnummer": "", "Aanvulling": "thv Moonstraat", "District": "Antwerpen", "Postcode": "2018", "Objectcode": "VE_0000041", "Gebruik": "IN_GEBRUIK", "Aantal_plaatsen": 27, "Naam": "041 Van Eyck" }, "geometry": { "type": "Point", "coordinates": [ 4.411794060905467, 51.210771280380236 ] } },
{ "type": "Feature", "properties": { "OBJECTID": 8451, "Objecttype": "VELOSTATION", "Type_velo": "ENKELZIJDIG", "Ligging": "VOETPAD", "Straatnaam": "Vredestraat", "Huisnummer": "99", "Aanvulling": "thv zonnebloemstraat", "District": "Berchem", "Postcode": "2600", "Objectcode": "VE_0000055", "Gebruik": "IN_GEBRUIK", "Aantal_plaatsen": 33, "Naam": "055 Zonnebloemstraat" }, "geometry": { "type": "Point", "coordinates": [ 4.428067052910022, 51.196912943795894 ] } },
{ "type": "Feature", "properties": { "OBJECTID": 8452, "Objecttype": "VELOSTATION", "Type_velo": "DUBBELZIJDIG", "Ligging": "PLEIN", "Straatnaam": "Kievitplein", "Huisnummer": "", "Aanvulling": "", "District": "Antwerpen", "Postcode": "2018", "Objectcode": "VE_0000003", "Gebruik": "IN_GEBRUIK", "Aantal_plaatsen": 30, "Naam": "003 Centraal station Kievit 2" }, "geometry": { "type": "Point", "coordinates": [ 4.421775891216312, 51.213025111036472 ] } },
{ "type": "Feature", "properties": { "OBJECTID": 8453, "Objecttype": "VELOSTATION", "Type_velo": "ENKELZIJDIG", "Ligging": "VOETPAD", "Straatnaam": "Dageraadplaats", "Huisnummer": "", "Aanvulling": "", "District": "Antwerpen", "Postcode": "2018", "Objectcode": "VE_0000110", "Gebruik": "IN_GEBRUIK", "Aantal_plaatsen": 36, "Naam": "110 Dageraadplaats" }, "geometry": { "type": "Point", "coordinates": [ 4.430119716383369, 51.206877079863872 ] } },
{ "type": "Feature", "properties": { "OBJECTID": 8454, "Objecttype": "VELOSTATION", "Type_velo": "ENKELZIJDIG", "Ligging": "PARKEERZONE", "Straatnaam": "Statiestraat", "Huisnummer": "53", "Aanvulling": "thv victor jacobslei", "District": "Berchem", "Postcode": "2600", "Objectcode": "VE_0000061", "Gebruik": "IN_GEBRUIK", "Aantal_plaatsen": 30, "Naam": "061 Victor Jacobslei" }, "geometry": { "type": "Point", "coordinates": [ 4.425468636090893, 51.197684674277454 ] } },
{ "type": "Feature", "properties": { "OBJECTID": 8455, "Objecttype": "VELOSTATION", "Type_velo": "ENKELZIJDIG", "Ligging": "VOETPAD", "Straatnaam": "Grotesteenweg", "Huisnummer": "", "Aanvulling": "thv Driekoningenstraat", "District": "Berchem", "Postcode": "2600", "Objectcode": "VE_0000021", "Gebruik": "IN_GEBRUIK", "Aantal_plaatsen": 30, "Naam": "021 Driekoningen" }, "geometry": { "type": "Point", "coordinates": [ 4.419263396082433, 51.195391973060161 ] } },
{ "type": "Feature", "properties": { "OBJECTID": 8456, "Objecttype": "VELOSTATION", "Type_velo": "ENKELZIJDIG", "Ligging": "VOETPAD", "Straatnaam": "Statiestraat", "Huisnummer": "", "Aanvulling": "thv Posthoflei", "District": "Berchem", "Postcode": "2600", "Objectcode": "VE_0000022", "Gebruik": "IN_GEBRUIK", "Aantal_plaatsen": 33, "Naam": "022 Statie" }, "geometry": { "type": "Point", "coordinates": [ 4.430621199572773, 51.199797300416513 ] } },
{ "type": "Feature", "properties": { "OBJECTID": 8457, "Objecttype": "VELOSTATION", "Type_velo": "ENKELZIJDIG", "Ligging": "PLEIN", "Straatnaam": "Laar", "Huisnummer": "", "Aanvulling": "thv Kerkplein", "District": "Borgerhout", "Postcode": "2140", "Objectcode": "VE_0000030", "Gebruik": "IN_GEBRUIK", "Aantal_plaatsen": 24, "Naam": "030 Het Laar" }, "geometry": { "type": "Point", "coordinates": [ 4.433346846298436, 51.216260914584673 ] } },
{ "type": "Feature", "properties": { "OBJECTID": 8458, "Objecttype": "VELOSTATION", "Type_velo": "ENKELZIJDIG", "Ligging": "PARKEERZONE", "Straatnaam": "Betogingstraat", "Huisnummer": "1", "Aanvulling": "to 1", "District": "Borgerhout", "Postcode": "2140", "Objectcode": "VE_0000039", "Gebruik": "IN_GEBRUIK", "Aantal_plaatsen": 36, "Naam": "039 Koxplein" }, "geometry": { "type": "Point", "coordinates": [ 4.434077650751143, 51.210967224688076 ] } },
{ "type": "Feature", "properties": { "OBJECTID": 8459, "Objecttype": "VELOSTATION", "Type_velo": "DUBBELZIJDIG", "Ligging": "PLEIN", "Straatnaam": "Krugerplein", "Huisnummer": "", "Aanvulling": "thv delarayestraat                 ", "District": "Borgerhout", "Postcode": "2140", "Objectcode": "VE_0000108", "Gebruik": "IN_GEBRUIK", "Aantal_plaatsen": 24, "Naam": "108 Krugerpark" }, "geometry": { "type": "Point", "coordinates": [ 4.440109172077478, 51.216009668138653 ] } },
{ "type": "Feature", "properties": { "OBJECTID": 8460, "Objecttype": "VELOSTATION", "Type_velo": "ENKELZIJDIG", "Ligging": "VOETPAD", "Straatnaam": "De Keyserlei", "Huisnummer": "57", "Aanvulling": "", "District": "Antwerpen", "Postcode": "2018", "Objectcode": "VE_0000004", "Gebruik": "IN_GEBRUIK", "Aantal_plaatsen": 21, "Naam": "004 Keyserlei" }, "geometry": { "type": "Point", "coordinates": [ 4.420016082042585, 51.217381736012086 ] } },
{ "type": "Feature", "properties": { "OBJECTID": 8461, "Objecttype": "VELOSTATION", "Type_velo": "ENKELZIJDIG", "Ligging": "PARKEERZONE", "Straatnaam": "Keizerstraat", "Huisnummer": "56-58", "Aanvulling": "to 56-58", "District": "Antwerpen", "Postcode": "2000", "Objectcode": "VE_0000028", "Gebruik": "IN_GEBRUIK", "Aantal_plaatsen": 24, "Naam": "028 Keizerstraat" }, "geometry": { "type": "Point", "coordinates": [ 4.408718889689093, 51.221498612149169 ] } },
{ "type": "Feature", "properties": { "OBJECTID": 8462, "Objecttype": "VELOSTATION", "Type_velo": "ENKELZIJDIG", "Ligging": "VOETPAD", "Straatnaam": "Lamorinièrestraat", "Huisnummer": "148", "Aanvulling": "", "District": "Antwerpen", "Postcode": "2018", "Objectcode": "VE_0000130", "Gebruik": "IN_GEBRUIK", "Aantal_plaatsen": 18, "Naam": "130 Larmoriniere" }, "geometry": { "type": "Point", "coordinates": [ 4.420780604433253, 51.203831865298426 ] } },
{ "type": "Feature", "properties": { "OBJECTID": 8463, "Objecttype": "VELOSTATION", "Type_velo": "ENKELZIJDIG", "Ligging": "VOETPAD", "Straatnaam": "Sint-Vincentiusstraat", "Huisnummer": "61", "Aanvulling": "to 61", "District": "Antwerpen", "Postcode": "2018", "Objectcode": "VE_0000093", "Gebruik": "IN_GEBRUIK", "Aantal_plaatsen": 30, "Naam": "093 Sint Vincentius" }, "geometry": { "type": "Point", "coordinates": [ 4.413469231656457, 51.205266098209563 ] } },
{ "type": "Feature", "properties": { "OBJECTID": 8464, "Objecttype": "VELOSTATION", "Type_velo": "ENKELZIJDIG", "Ligging": "PARKEERZONE", "Straatnaam": "Van Schoonbekestraat", "Huisnummer": "", "Aanvulling": "thv markgravelei", "District": "Antwerpen", "Postcode": "2018", "Objectcode": "VE_0000089", "Gebruik": "IN_GEBRUIK", "Aantal_plaatsen": 36, "Naam": "089 Hof van Leysen" }, "geometry": { "type": "Point", "coordinates": [ 4.402117106489185, 51.198403898807648 ] } },
{ "type": "Feature", "properties": { "OBJECTID": 8465, "Objecttype": "VELOSTATION", "Type_velo": "ENKELZIJDIG", "Ligging": "VOETPAD", "Straatnaam": "Boudewijnsstraat", "Huisnummer": "19-21", "Aanvulling": "to 19-21", "District": "Antwerpen", "Postcode": "2018", "Objectcode": "VE_0000085", "Gebruik": "IN_GEBRUIK", "Aantal_plaatsen": 36, "Naam": "085 Den Bell" }, "geometry": { "type": "Point", "coordinates": [ 4.39879385649582, 51.205772036007062 ] } },
{ "type": "Feature", "properties": { "OBJECTID": 8466, "Objecttype": "VELOSTATION", "Type_velo": "ENKELZIJDIG", "Ligging": "PARKEERZONE", "Straatnaam": "Rubenslei", "Huisnummer": "", "Aanvulling": "thv ingang park", "District": "Antwerpen", "Postcode": "2018", "Objectcode": "VE_0000096", "Gebruik": "IN_GEBRUIK", "Aantal_plaatsen": 24, "Naam": "096 Stadspark" }, "geometry": { "type": "Point", "coordinates": [ 4.413277033832608, 51.213367071251852 ] } },
{ "type": "Feature", "properties": { "OBJECTID": 8467, "Objecttype": "VELOSTATION", "Type_velo": "ENKELZIJDIG", "Ligging": "PARKEERZONE", "Straatnaam": "Plantinkaai", "Huisnummer": "27", "Aanvulling": "to 27", "District": "Antwerpen", "Postcode": "2000", "Objectcode": "VE_0000065", "Gebruik": "BUITEN_GEBRUIK", "Aantal_plaatsen": 30, "Naam": "065 Plantinkaai" }, "geometry": { "type": "Point", "coordinates": [ 4.39376142779258, 51.21650827041168 ] } },
{ "type": "Feature", "properties": { "OBJECTID": 8468, "Objecttype": "VELOSTATION", "Type_velo": "ENKELZIJDIG", "Ligging": "PLEIN", "Straatnaam": "Groenplaats", "Huisnummer": "7", "Aanvulling": "", "District": "Antwerpen", "Postcode": "2000", "Objectcode": "VE_0000017", "Gebruik": "IN_GEBRUIK", "Aantal_plaatsen": 18, "Naam": "017 Groenplaats" }, "geometry": { "type": "Point", "coordinates": [ 4.401196920279213, 51.218864194762581 ] } },
{ "type": "Feature", "properties": { "OBJECTID": 8469, "Objecttype": "VELOSTATION", "Type_velo": "ENKELZIJDIG", "Ligging": "PARKEERZONE", "Straatnaam": "Pieter Van Hobokenstraat", "Huisnummer": "19-21", "Aanvulling": "", "District": "Antwerpen", "Postcode": "2000", "Objectcode": "VE_0000054", "Gebruik": "IN_GEBRUIK", "Aantal_plaatsen": 21, "Naam": "054 Ossenmarkt" }, "geometry": { "type": "Point", "coordinates": [ 4.412869202644274, 51.221872904804769 ] } },
{ "type": "Feature", "properties": { "OBJECTID": 8470, "Objecttype": "VELOSTATION", "Type_velo": "ENKELZIJDIG", "Ligging": "VOETPAD", "Straatnaam": "Trapstraat", "Huisnummer": "10", "Aanvulling": "", "District": "Antwerpen", "Postcode": "2060", "Objectcode": "VE_0000118", "Gebruik": "IN_GEBRUIK", "Aantal_plaatsen": 21, "Naam": "118 Dambrugge" }, "geometry": { "type": "Point", "coordinates": [ 4.422344633417626, 51.227251661603546 ] } },
{ "type": "Feature", "properties": { "OBJECTID": 8471, "Objecttype": "VELOSTATION", "Type_velo": "ENKELZIJDIG", "Ligging": "PARKEERZONE", "Straatnaam": "Stuivenbergplein", "Huisnummer": "36-1", "Aanvulling": "to 36-1", "District": "Antwerpen", "Postcode": "2060", "Objectcode": "VE_0000121", "Gebruik": "IN_GEBRUIK", "Aantal_plaatsen": 30, "Naam": "121 Stuivenbergplein" }, "geometry": { "type": "Point", "coordinates": [ 4.430696595954571, 51.227344146796483 ] } },
{ "type": "Feature", "properties": { "OBJECTID": 8472, "Objecttype": "VELOSTATION", "Type_velo": "DUBBELZIJDIG", "Ligging": "GROENZONE", "Straatnaam": "Binnensingel", "Huisnummer": "", "Aanvulling": "kp Grote Stwg", "District": "Berchem", "Postcode": "2600", "Objectcode": "VE_0000103", "Gebruik": "IN_GEBRUIK", "Aantal_plaatsen": 36, "Naam": "103 Oude Kerk Berchem" }, "geometry": { "type": "Point", "coordinates": [ 4.421479817991004, 51.192606072454439 ] } },
{ "type": "Feature", "properties": { "OBJECTID": 8473, "Objecttype": "VELOSTATION", "Type_velo": "ENKEL-DUBBELZIJDIG", "Ligging": "MIDDENBERM", "Straatnaam": "Karel Oomsstraat", "Huisnummer": "69", "Aanvulling": "to 69 od middenberm thv binnensingel", "District": "Antwerpen", "Postcode": "2018", "Objectcode": "VE_0000031", "Gebruik": "IN_GEBRUIK", "Aantal_plaatsen": 36, "Naam": "031 Wezenberg" }, "geometry": { "type": "Point", "coordinates": [ 4.4079793838263, 51.193148733501971 ] } },
{ "type": "Feature", "properties": { "OBJECTID": 8474, "Objecttype": "VELOSTATION", "Type_velo": "ENKELZIJDIG", "Ligging": "PARKEERZONE", "Straatnaam": "De Wittestraat", "Huisnummer": "101", "Aanvulling": "to 101, thv generaal lemanstraat", "District": "Berchem", "Postcode": "2600", "Objectcode": "VE_0000131", "Gebruik": "IN_GEBRUIK", "Aantal_plaatsen": 21, "Naam": "131 De Wittestraat" }, "geometry": { "type": "Point", "coordinates": [ 4.412239164137355, 51.193756561318466 ] } },
{ "type": "Feature", "properties": { "OBJECTID": 8475, "Objecttype": "VELOSTATION", "Type_velo": "ENKELZIJDIG", "Ligging": "PLEIN", "Straatnaam": "Frans Van Hombeeckplein", "Huisnummer": "10", "Aanvulling": "to 10", "District": "Berchem", "Postcode": "2600", "Objectcode": "VE_0000100", "Gebruik": "IN_GEBRUIK", "Aantal_plaatsen": 33, "Naam": "100 Van Hombeeckplein" }, "geometry": { "type": "Point", "coordinates": [ 4.417558838677263, 51.195125729880672 ] } },
{ "type": "Feature", "properties": { "OBJECTID": 8476, "Objecttype": "VELOSTATION", "Type_velo": "ENKELZIJDIG", "Ligging": "GROENZONE", "Straatnaam": "Generaal Lemanstraat", "Huisnummer": "6", "Aanvulling": "to 6 thv karel oomsstraat", "District": "Antwerpen", "Postcode": "2018", "Objectcode": "VE_0000099", "Gebruik": "IN_GEBRUIK", "Aantal_plaatsen": 24, "Naam": "099 Generaal Leman" }, "geometry": { "type": "Point", "coordinates": [ 4.410297744005983, 51.197098100070328 ] } },
{ "type": "Feature", "properties": { "OBJECTID": 8477, "Objecttype": "VELOSTATION", "Type_velo": "DUBBELZIJDIG", "Ligging": "GROENZONE", "Straatnaam": "Desguinlei", "Huisnummer": "", "Aanvulling": "Kielsbroek thv Montignystraat", "District": "Antwerpen", "Postcode": "2018", "Objectcode": "VE_0000010", "Gebruik": "IN_GEBRUIK", "Aantal_plaatsen": 36, "Naam": "010 NMBS Zuid" }, "geometry": { "type": "Point", "coordinates": [ 4.390714172957722, 51.198480209952969 ] } },
{ "type": "Feature", "properties": { "OBJECTID": 8478, "Objecttype": "VELOSTATION", "Type_velo": "ENKELZIJDIG", "Ligging": "PARKEERZONE", "Straatnaam": "Boomgaardstraat", "Huisnummer": "31", "Aanvulling": "", "District": "Antwerpen", "Postcode": "2018", "Objectcode": "VE_0000098", "Gebruik": "BUITEN_GEBRUIK", "Aantal_plaatsen": 21, "Naam": "098 Haringrode" }, "geometry": { "type": "Point", "coordinates": [ 4.41878996120191, 51.199875393938768 ] } },
{ "type": "Feature", "properties": { "OBJECTID": 8479, "Objecttype": "VELOSTATION", "Type_velo": "ENKELZIJDIG", "Ligging": "VOETPAD", "Straatnaam": "Lange Elzenstraat", "Huisnummer": "56", "Aanvulling": "", "District": "Antwerpen", "Postcode": "2018", "Objectcode": "VE_0000087", "Gebruik": "IN_GEBRUIK", "Aantal_plaatsen": 21, "Naam": "087 Lange Elzen" }, "geometry": { "type": "Point", "coordinates": [ 4.394210609438575, 51.200793322776732 ] } },
{ "type": "Feature", "properties": { "OBJECTID": 8480, "Objecttype": "VELOSTATION", "Type_velo": "ENKELZIJDIG", "Ligging": "PLEIN", "Straatnaam": "Burgemeester E. Ryckaertsplein", "Huisnummer": "", "Aanvulling": "NMBS station Berchem", "District": "Berchem", "Postcode": "2600", "Objectcode": "VE_0000007", "Gebruik": "IN_GEBRUIK", "Aantal_plaatsen": 36, "Naam": "007 NMBS Berchem " }, "geometry": { "type": "Point", "coordinates": [ 4.434009709357634, 51.200974547387929 ] } },
{ "type": "Feature", "properties": { "OBJECTID": 8481, "Objecttype": "VELOSTATION", "Type_velo": "DUBBELZIJDIG", "Ligging": "RIJWEG", "Straatnaam": "Vandenpeereboomstraat", "Huisnummer": "106", "Aanvulling": "", "District": "Borgerhout", "Postcode": "2140", "Objectcode": "VE_0000009", "Gebruik": "IN_GEBRUIK", "Aantal_plaatsen": 30, "Naam": "009 NMBS Oost" }, "geometry": { "type": "Point", "coordinates": [ 4.436055751475154, 51.209090225677279 ] } },
{ "type": "Feature", "properties": { "OBJECTID": 8482, "Objecttype": "VELOSTATION", "Type_velo": "ENKELZIJDIG", "Ligging": "PARKEERZONE", "Straatnaam": "Van Trierstraat", "Huisnummer": "2", "Aanvulling": "to 2 thv haantjeslei", "District": "Antwerpen", "Postcode": "2018", "Objectcode": "VE_0000088", "Gebruik": "IN_GEBRUIK", "Aantal_plaatsen": 21, "Naam": "088 Haantjeslei" }, "geometry": { "type": "Point", "coordinates": [ 4.402191651358649, 51.201166827721593 ] } },
{ "type": "Feature", "properties": { "OBJECTID": 8483, "Objecttype": "VELOSTATION", "Type_velo": "DUBBELZIJDIG", "Ligging": "VOETPAD", "Straatnaam": "Lange Lozanastraat", "Huisnummer": "", "Aanvulling": "", "District": "Antwerpen", "Postcode": "2018", "Objectcode": "VE_0000029", "Gebruik": "IN_GEBRUIK", "Aantal_plaatsen": 18, "Naam": "029 Lozana" }, "geometry": { "type": "Point", "coordinates": [ 4.406050111060153, 51.201811015206992 ] } },
{ "type": "Feature", "properties": { "OBJECTID": 8484, "Objecttype": "VELOSTATION", "Type_velo": "ENKELZIJDIG", "Ligging": "PARKEERZONE", "Straatnaam": "Mechelsesteenweg", "Huisnummer": "", "Aanvulling": "thv ingang harmoniepark", "District": "Antwerpen", "Postcode": "2018", "Objectcode": "VE_0000042", "Gebruik": "IN_GEBRUIK", "Aantal_plaatsen": 21, "Naam": "042 Harmonie" }, "geometry": { "type": "Point", "coordinates": [ 4.412075667819037, 51.202274119462892 ] } },
{ "type": "Feature", "properties": { "OBJECTID": 8485, "Objecttype": "VELOSTATION", "Type_velo": "ENKELZIJDIG", "Ligging": "GROENZONE", "Straatnaam": "Stanleystraat", "Huisnummer": "1", "Aanvulling": "to 1 thv lange leemstraat", "District": "Antwerpen", "Postcode": "2018", "Objectcode": "VE_0000097", "Gebruik": "IN_GEBRUIK", "Aantal_plaatsen": 21, "Naam": "097 Cuperus" }, "geometry": { "type": "Point", "coordinates": [ 4.42850626669774, 51.203176886105283 ] } },
{ "type": "Feature", "properties": { "OBJECTID": 8486, "Objecttype": "VELOSTATION", "Type_velo": "ENKELZIJDIG", "Ligging": "VOETPAD", "Straatnaam": "Troonplaats", "Huisnummer": "", "Aanvulling": "thv montignystraat", "District": "Antwerpen", "Postcode": "2018", "Objectcode": "VE_0000086", "Gebruik": "IN_GEBRUIK", "Aantal_plaatsen": 27, "Naam": "086 Troonplaats" }, "geometry": { "type": "Point", "coordinates": [ 4.392218039513275, 51.203415034882376 ] } },
{ "type": "Feature", "properties": { "OBJECTID": 8487, "Objecttype": "VELOSTATION", "Type_velo": "ENKELZIJDIG", "Ligging": "VOETPAD", "Straatnaam": "Mechelsesteenweg", "Huisnummer": "180", "Aanvulling": "", "District": "Antwerpen", "Postcode": "2018", "Objectcode": "VE_0000092", "Gebruik": "IN_GEBRUIK", "Aantal_plaatsen": 21, "Naam": "092 Sint-Thomas" }, "geometry": { "type": "Point", "coordinates": [ 4.410600090915908, 51.204557987357873 ] } },
{ "type": "Feature", "properties": { "OBJECTID": 8488, "Objecttype": "VELOSTATION", "Type_velo": "ENKELZIJDIG", "Ligging": "VOETPAD", "Straatnaam": "Vinkenstraat", "Huisnummer": "7", "Aanvulling": "to 7", "District": "Antwerpen", "Postcode": "2018", "Objectcode": "VE_0000090", "Gebruik": "IN_GEBRUIK", "Aantal_plaatsen": 18, "Naam": "090 Ballaarstraat" }, "geometry": { "type": "Point", "coordinates": [ 4.404772477084158, 51.204576502371786 ] } },
{ "type": "Feature", "properties": { "OBJECTID": 8489, "Objecttype": "VELOSTATION", "Type_velo": "ENKELZIJDIG", "Ligging": "PLEIN", "Straatnaam": "Bolivarplaats", "Huisnummer": "", "Aanvulling": "thv gerechtsgebouw", "District": "Antwerpen", "Postcode": "2000", "Objectcode": "VE_0000081", "Gebruik": "IN_GEBRUIK", "Aantal_plaatsen": 27, "Naam": "081 Justitiepaleis" }, "geometry": { "type": "Point", "coordinates": [ 4.387650748262567, 51.204675081429009 ] } },
{ "type": "Feature", "properties": { "OBJECTID": 8490, "Objecttype": "VELOSTATION", "Type_velo": "ENKELZIJDIG", "Ligging": "VOETPAD", "Straatnaam": "Draakplaats", "Huisnummer": "", "Aanvulling": "", "District": "Berchem", "Postcode": "2600", "Objectcode": "VE_0000106", "Gebruik": "IN_GEBRUIK", "Aantal_plaatsen": 33, "Naam": "106 Draakplaats" }, "geometry": { "type": "Point", "coordinates": [ 4.432177350795297, 51.205656115380087 ] } },
{ "type": "Feature", "properties": { "OBJECTID": 8491, "Objecttype": "VELOSTATION", "Type_velo": "ENKELZIJDIG", "Ligging": "VOETPAD", "Straatnaam": "Amerikalei", "Huisnummer": "82", "Aanvulling": "", "District": "Antwerpen", "Postcode": "2000", "Objectcode": "VE_0000083", "Gebruik": "IN_GEBRUIK", "Aantal_plaatsen": 27, "Naam": "083 Brederode" }, "geometry": { "type": "Point", "coordinates": [ 4.398460113970215, 51.207737978773459 ] } },
{ "type": "Feature", "properties": { "OBJECTID": 8492, "Objecttype": "VELOSTATION", "Type_velo": "ENKELZIJDIG", "Ligging": "VOETPAD", "Straatnaam": "Beeldhouwersstraat", "Huisnummer": "", "Aanvulling": "thv Admiraal De Boisotstraat", "District": "Antwerpen", "Postcode": "2000", "Objectcode": "VE_0000015", "Gebruik": "IN_GEBRUIK", "Aantal_plaatsen": 36, "Naam": "015 Schone Kunsten" }, "geometry": { "type": "Point", "coordinates": [ 4.394452907135388, 51.20785249054466 ] } },
{ "type": "Feature", "properties": { "OBJECTID": 8493, "Objecttype": "VELOSTATION", "Type_velo": "ENKELZIJDIG", "Ligging": "PARKEERZONE", "Straatnaam": "Provinciestraat", "Huisnummer": "", "Aanvulling": "thv mercatorstraat", "District": "Antwerpen", "Postcode": "2018", "Objectcode": "VE_0000104", "Gebruik": "IN_GEBRUIK", "Aantal_plaatsen": 18, "Naam": "104 Mercator" }, "geometry": { "type": "Point", "coordinates": [ 4.424229403600571, 51.208108599282887 ] } },
{ "type": "Feature", "properties": { "OBJECTID": 8494, "Objecttype": "VELOSTATION", "Type_velo": "DUBBELZIJDIG", "Ligging": "VOETPAD", "Straatnaam": "Waalsekaai", "Huisnummer": "46", "Aanvulling": "thv Fotografie museum", "District": "Antwerpen", "Postcode": "2000", "Objectcode": "VE_0000082", "Gebruik": "IN_GEBRUIK", "Aantal_plaatsen": 36, "Naam": "082 Fotografiemuseum" }, "geometry": { "type": "Point", "coordinates": [ 4.387290895021348, 51.208524877144121 ] } },
{ "type": "Feature", "properties": { "OBJECTID": 8495, "Objecttype": "VELOSTATION", "Type_velo": "DUBBELZIJDIG", "Ligging": "VOETPAD", "Straatnaam": "Mechelsesteenweg", "Huisnummer": "66", "Aanvulling": "", "District": "Antwerpen", "Postcode": "2018", "Objectcode": "VE_0000091", "Gebruik": "IN_GEBRUIK", "Aantal_plaatsen": 18, "Naam": "091 Hemelstraat" }, "geometry": { "type": "Point", "coordinates": [ 4.408317267371118, 51.208789138357247 ] } },
{ "type": "Feature", "properties": { "OBJECTID": 8496, "Objecttype": "VELOSTATION", "Type_velo": "ENKELZIJDIG", "Ligging": "VOETPAD", "Straatnaam": "Lange Van Ruusbroecstraat", "Huisnummer": "114", "Aanvulling": "", "District": "Antwerpen", "Postcode": "2018", "Objectcode": "VE_0000105", "Gebruik": "IN_GEBRUIK", "Aantal_plaatsen": 33, "Naam": "105 Plantin en Moretus" }, "geometry": { "type": "Point", "coordinates": [ 4.431455545983068, 51.208972268146475 ] } },
{ "type": "Feature", "properties": { "OBJECTID": 8497, "Objecttype": "VELOSTATION", "Type_velo": "ENKELZIJDIG", "Ligging": "VOETPAD", "Straatnaam": "Britselei", "Huisnummer": "86-94", "Aanvulling": "", "District": "Antwerpen", "Postcode": "2000", "Objectcode": "VE_0000078", "Gebruik": "IN_GEBRUIK", "Aantal_plaatsen": 27, "Naam": "078 Oud Gerechtshof" }, "geometry": { "type": "Point", "coordinates": [ 4.40293284757141, 51.209189711953904 ] } },
{ "type": "Feature", "properties": { "OBJECTID": 8498, "Objecttype": "VELOSTATION", "Type_velo": "ENKELZIJDIG", "Ligging": "PARKEERZONE", "Straatnaam": "Vlaamsekaai", "Huisnummer": "35", "Aanvulling": "", "District": "Antwerpen", "Postcode": "2000", "Objectcode": "VE_0000075", "Gebruik": "IN_GEBRUIK", "Aantal_plaatsen": 21, "Naam": "075 Vlaamsekaai" }, "geometry": { "type": "Point", "coordinates": [ 4.391754812392969, 51.209918774828289 ] } },
{ "type": "Feature", "properties": { "OBJECTID": 8499, "Objecttype": "VELOSTATION", "Type_velo": "ENKELZIJDIG", "Ligging": "MIDDENBERM", "Straatnaam": "Van Eycklei", "Huisnummer": "48", "Aanvulling": "to 48", "District": "Antwerpen", "Postcode": "2018", "Objectcode": "VE_0000116", "Gebruik": "IN_GEBRUIK", "Aantal_plaatsen": 18, "Naam": "116 Loosplaats" }, "geometry": { "type": "Point", "coordinates": [ 4.417370316943072, 51.210050382135123 ] } },
{ "type": "Feature", "properties": { "OBJECTID": 8500, "Objecttype": "VELOSTATION", "Type_velo": "ENKELZIJDIG", "Ligging": "VOETGANGERSZONE", "Straatnaam": "Waalsekaai", "Huisnummer": "53", "Aanvulling": "", "District": "Antwerpen", "Postcode": "2000", "Objectcode": "VE_0000034", "Gebruik": "IN_GEBRUIK", "Aantal_plaatsen": 24, "Naam": "034 MUKHA" }, "geometry": { "type": "Point", "coordinates": [ 4.388737392490889, 51.210701397860895 ] } },
{ "type": "Feature", "properties": { "OBJECTID": 8501, "Objecttype": "VELOSTATION", "Type_velo": "ENKEL-DUBBELZIJDIG", "Ligging": "VOETPAD", "Straatnaam": "Britselei", "Huisnummer": "4", "Aanvulling": "thv mechelsesteenweg", "District": "Antwerpen", "Postcode": "2000", "Objectcode": "VE_0000079", "Gebruik": "IN_GEBRUIK", "Aantal_plaatsen": 36, "Naam": "079 Nationale Bank" }, "geometry": { "type": "Point", "coordinates": [ 4.407276684243762, 51.211057439719177 ] } },
{ "type": "Feature", "properties": { "OBJECTID": 8502, "Objecttype": "VELOSTATION", "Type_velo": "ENKELZIJDIG", "Ligging": "PLEIN", "Straatnaam": "Maarschalk Montgomeryplein", "Huisnummer": "4", "Aanvulling": "to 4 oh plein", "District": "Borgerhout", "Postcode": "2140", "Objectcode": "VE_0000132", "Gebruik": "IN_GEBRUIK", "Aantal_plaatsen": 18, "Naam": "132 Montgomery" }, "geometry": { "type": "Point", "coordinates": [ 4.437785264165385, 51.211728040540919 ] } },
{ "type": "Feature", "properties": { "OBJECTID": 8503, "Objecttype": "VELOSTATION", "Type_velo": "ENKELZIJDIG", "Ligging": "PARKEERZONE", "Straatnaam": "Kronenburgstraat", "Huisnummer": "82", "Aanvulling": "to 82", "District": "Antwerpen", "Postcode": "2000", "Objectcode": "VE_0000072", "Gebruik": "IN_GEBRUIK", "Aantal_plaatsen": 36, "Naam": "072 Tropisch Instituut" }, "geometry": { "type": "Point", "coordinates": [ 4.398901754040272, 51.2118877091279 ] } },
{ "type": "Feature", "properties": { "OBJECTID": 8504, "Objecttype": "VELOSTATION", "Type_velo": "DUBBELZIJDIG", "Ligging": "VOETPAD", "Straatnaam": "Kloosterstraat", "Huisnummer": "164", "Aanvulling": "to 164 thv kronenburgstraat", "District": "Antwerpen", "Postcode": "2000", "Objectcode": "VE_0000074", "Gebruik": "IN_GEBRUIK", "Aantal_plaatsen": 30, "Naam": "074 Vismijn" }, "geometry": { "type": "Point", "coordinates": [ 4.394016249334145, 51.21228730073512 ] } },
{ "type": "Feature", "properties": { "OBJECTID": 8505, "Objecttype": "VELOSTATION", "Type_velo": "DUBBELZIJDIG", "Ligging": "PLEIN", "Straatnaam": "Kievitplein", "Huisnummer": "", "Aanvulling": "", "District": "Antwerpen", "Postcode": "2018", "Objectcode": "VE_0000005", "Gebruik": "IN_GEBRUIK", "Aantal_plaatsen": 36, "Naam": "005 Centraal Station - Kievit" }, "geometry": { "type": "Point", "coordinates": [ 4.421609796644196, 51.21300161157307 ] } },
{ "type": "Feature", "properties": { "OBJECTID": 8506, "Objecttype": "VELOSTATION", "Type_velo": "ENKELZIJDIG", "Ligging": "MIDDENBERM", "Straatnaam": "Lange Gasthuisstraat", "Huisnummer": "3", "Aanvulling": "to 3", "District": "Antwerpen", "Postcode": "2000", "Objectcode": "VE_0000084", "Gebruik": "IN_GEBRUIK", "Aantal_plaatsen": 33, "Naam": "084 Elzenveld" }, "geometry": { "type": "Point", "coordinates": [ 4.404964477402114, 51.213461741898655 ] } },
{ "type": "Feature", "properties": { "OBJECTID": 8507, "Objecttype": "VELOSTATION", "Type_velo": "DUBBELZIJDIG", "Ligging": "PLEIN", "Straatnaam": "Moorkensplein", "Huisnummer": "", "Aanvulling": "", "District": "Borgerhout", "Postcode": "2140", "Objectcode": "VE_0000107", "Gebruik": "IN_GEBRUIK", "Aantal_plaatsen": 36, "Naam": "107 Moorkensplein" }, "geometry": { "type": "Point", "coordinates": [ 4.433898485140165, 51.213363545799005 ] } },
{ "type": "Feature", "properties": { "OBJECTID": 8508, "Objecttype": "VELOSTATION", "Type_velo": "ENKELZIJDIG", "Ligging": "PARKEERZONE", "Straatnaam": "Tabakvest", "Huisnummer": "42", "Aanvulling": "", "District": "Antwerpen", "Postcode": "2000", "Objectcode": "VE_0000037", "Gebruik": "IN_GEBRUIK", "Aantal_plaatsen": 30, "Naam": "037 Theater" }, "geometry": { "type": "Point", "coordinates": [ 4.412070273330924, 51.215333008974262 ] } },
{ "type": "Feature", "properties": { "OBJECTID": 8509, "Objecttype": "VELOSTATION", "Type_velo": "ENKELZIJDIG", "Ligging": "PARKEERZONE", "Straatnaam": "Quinten Matsijslei", "Huisnummer": "12", "Aanvulling": "", "District": "Antwerpen", "Postcode": "2018", "Objectcode": "VE_0000095", "Gebruik": "IN_GEBRUIK", "Aantal_plaatsen": 30, "Naam": "095 Quinten Matsijs " }, "geometry": { "type": "Point", "coordinates": [ 4.416202999278023, 51.214156061211874 ] } },
{ "type": "Feature", "properties": { "OBJECTID": 8510, "Objecttype": "VELOSTATION", "Type_velo": "ENKELZIJDIG", "Ligging": "PARKEERZONE", "Straatnaam": "Sint-Andriesplaats", "Huisnummer": "23", "Aanvulling": "to 23 oh plein", "District": "Antwerpen", "Postcode": "2000", "Objectcode": "VE_0000070", "Gebruik": "IN_GEBRUIK", "Aantal_plaatsen": 30, "Naam": "070 Sint-Andries" }, "geometry": { "type": "Point", "coordinates": [ 4.396330177998357, 51.214841897971816 ] } },
{ "type": "Feature", "properties": { "OBJECTID": 8511, "Objecttype": "VELOSTATION", "Type_velo": "ENKELZIJDIG", "Ligging": "PARKEERZONE", "Straatnaam": "Sint-Michielskaai", "Huisnummer": "21", "Aanvulling": "to 21", "District": "Antwerpen", "Postcode": "2000", "Objectcode": "VE_0000071", "Gebruik": "BUITEN_GEBRUIK", "Aantal_plaatsen": 30, "Naam": "071 Sint-Michielskaai" }, "geometry": { "type": "Point", "coordinates": [ 4.392508979825814, 51.214833628570318 ] } },
{ "type": "Feature", "properties": { "OBJECTID": 8512, "Objecttype": "VELOSTATION", "Type_velo": "ENKEL-DUBBELZIJDIG", "Ligging": "PARKEERZONE", "Straatnaam": "Oudaan", "Huisnummer": "14", "Aanvulling": "", "District": "Antwerpen", "Postcode": "2000", "Objectcode": "VE_0000067", "Gebruik": "IN_GEBRUIK", "Aantal_plaatsen": 36, "Naam": "067 Oudaan" }, "geometry": { "type": "Point", "coordinates": [ 4.403069133799074, 51.2157712411923 ] } },
{ "type": "Feature", "properties": { "OBJECTID": 8513, "Objecttype": "VELOSTATION", "Type_velo": "ENKELZIJDIG", "Ligging": "VOETPAD", "Straatnaam": "Arenbergstraat", "Huisnummer": "40", "Aanvulling": "", "District": "Antwerpen", "Postcode": "2000", "Objectcode": "VE_0000036", "Gebruik": "IN_GEBRUIK", "Aantal_plaatsen": 33, "Naam": "036 Bourla" }, "geometry": { "type": "Point", "coordinates": [ 4.408779977507005, 51.21527647620303 ] } },
{ "type": "Feature", "properties": { "OBJECTID": 8514, "Objecttype": "VELOSTATION", "Type_velo": "DUBBELZIJDIG", "Ligging": "VOETPAD", "Straatnaam": "Wapper", "Huisnummer": "", "Aanvulling": "thv Jodenstraat", "District": "Antwerpen", "Postcode": "2000", "Objectcode": "VE_0000023", "Gebruik": "IN_GEBRUIK", "Aantal_plaatsen": 36, "Naam": "023 Rubenshuis" }, "geometry": { "type": "Point", "coordinates": [ 4.40888110931076, 51.217083737949309 ] } },
{ "type": "Feature", "properties": { "OBJECTID": 8515, "Objecttype": "VELOSTATION", "Type_velo": "ENKELZIJDIG", "Ligging": "PARKEERZONE", "Straatnaam": "Drukkerijstraat", "Huisnummer": "18", "Aanvulling": "", "District": "Antwerpen", "Postcode": "2000", "Objectcode": "VE_0000066", "Gebruik": "IN_GEBRUIK", "Aantal_plaatsen": 24, "Naam": "066 Modemuseum" }, "geometry": { "type": "Point", "coordinates": [ 4.399241480869104, 51.217128499092013 ] } },
{ "type": "Feature", "properties": { "OBJECTID": 8516, "Objecttype": "VELOSTATION", "Type_velo": "ENKELZIJDIG", "Ligging": "PLEIN", "Straatnaam": "Koningin Astridplein", "Huisnummer": "31-32", "Aanvulling": "", "District": "Antwerpen", "Postcode": "2018", "Objectcode": "VE_0000001", "Gebruik": "IN_GEBRUIK", "Aantal_plaatsen": 33, "Naam": "001 Centraal Station - Astrid" }, "geometry": { "type": "Point", "coordinates": [ 4.420633795082129, 51.217681120024338 ] } },
{ "type": "Feature", "properties": { "OBJECTID": 8517, "Objecttype": "VELOSTATION", "Type_velo": "ENKELZIJDIG", "Ligging": "VOETPAD", "Straatnaam": "Meir", "Huisnummer": "18", "Aanvulling": "", "District": "Antwerpen", "Postcode": "2000", "Objectcode": "VE_0000018", "Gebruik": "IN_GEBRUIK", "Aantal_plaatsen": 36, "Naam": "018 Meirbrug" }, "geometry": { "type": "Point", "coordinates": [ 4.406168536101777, 51.218186580687608 ] } },
{ "type": "Feature", "properties": { "OBJECTID": 8518, "Objecttype": "VELOSTATION", "Type_velo": "DUBBELZIJDIG", "Ligging": "VOETPAD", "Straatnaam": "Leysstraat", "Huisnummer": " 27", "Aanvulling": "", "District": "Antwerpen", "Postcode": "2000", "Objectcode": "VE_0000025", "Gebruik": "IN_GEBRUIK", "Aantal_plaatsen": 36, "Naam": "025 Teniersplaats" }, "geometry": { "type": "Point", "coordinates": [ 4.414085798069481, 51.218256297291411 ] } },
{ "type": "Feature", "properties": { "OBJECTID": 8519, "Objecttype": "VELOSTATION", "Type_velo": "ENKELZIJDIG", "Ligging": "VOETPAD", "Straatnaam": "Kerkstraat", "Huisnummer": "58", "Aanvulling": "", "District": "Antwerpen", "Postcode": "2060", "Objectcode": "VE_0000109", "Gebruik": "IN_GEBRUIK", "Aantal_plaatsen": 21, "Naam": "109 Kerkstraat" }, "geometry": { "type": "Point", "coordinates": [ 4.430555980277485, 51.218602671823284 ] } },
{ "type": "Feature", "properties": { "OBJECTID": 8520, "Objecttype": "VELOSTATION", "Type_velo": "ENKELZIJDIG", "Ligging": "VOETPAD", "Straatnaam": "Vercammenstraat", "Huisnummer": "3", "Aanvulling": "thv helmstraat", "District": "Borgerhout", "Postcode": "2140", "Objectcode": "VE_0000113", "Gebruik": "IN_GEBRUIK", "Aantal_plaatsen": 27, "Naam": "113 Helmstraat" }, "geometry": { "type": "Point", "coordinates": [ 4.43863505069876, 51.218636439199187 ] } },
{ "type": "Feature", "properties": { "OBJECTID": 8521, "Objecttype": "VELOSTATION", "Type_velo": "DUBBELZIJDIG", "Ligging": "PLEIN", "Straatnaam": "Plantinkaai", "Huisnummer": "", "Aanvulling": "to st-jansvliet zuiderterras", "District": "Antwerpen", "Postcode": "2000", "Objectcode": "VE_0000064", "Gebruik": "IN_GEBRUIK", "Aantal_plaatsen": 36, "Naam": "064 Zuiderterras" }, "geometry": { "type": "Point", "coordinates": [ 4.395057171532061, 51.218844353020565 ] } },
{ "type": "Feature", "properties": { "OBJECTID": 8522, "Objecttype": "VELOSTATION", "Type_velo": "DUBBELZIJDIG", "Ligging": "PLEIN", "Straatnaam": "Osystraat", "Huisnummer": "", "Aanvulling": "verplaatst van Italielei naar  Osystraat", "District": "Antwerpen", "Postcode": "2000", "Objectcode": "VE_0000011", "Gebruik": "IN_GEBRUIK", "Aantal_plaatsen": 36, "Naam": "011 Roosevelt" }, "geometry": { "type": "Point", "coordinates": [ 4.41834121220928, 51.222080368387878 ] } },
{ "type": "Feature", "properties": { "OBJECTID": 8523, "Objecttype": "VELOSTATION", "Type_velo": "ENKELZIJDIG", "Ligging": "GROENZONE", "Straatnaam": "Ernest Van Dijckkaai", "Huisnummer": "11-12", "Aanvulling": "to 11-12 zuiderterras", "District": "Antwerpen", "Postcode": "2000", "Objectcode": "VE_0000059", "Gebruik": "IN_GEBRUIK", "Aantal_plaatsen": 36, "Naam": "059 Het Steen" }, "geometry": { "type": "Point", "coordinates": [ 4.396754215056191, 51.221074453805223 ] } },
{ "type": "Feature", "properties": { "OBJECTID": 8524, "Objecttype": "VELOSTATION", "Type_velo": "DUBBELZIJDIG", "Ligging": "VOETPAD", "Straatnaam": "Wolstraat", "Huisnummer": "2", "Aanvulling": "thv korte koepoortstraat", "District": "Antwerpen", "Postcode": "2000", "Objectcode": "VE_0000057", "Gebruik": "IN_GEBRUIK", "Aantal_plaatsen": 18, "Naam": "057 Wolstraat" }, "geometry": { "type": "Point", "coordinates": [ 4.402678357704985, 51.2215903802566 ] } },
{ "type": "Feature", "properties": { "OBJECTID": 8525, "Objecttype": "VELOSTATION", "Type_velo": "ENKELZIJDIG", "Ligging": "PLEIN", "Straatnaam": "De Coninckplein", "Huisnummer": "26", "Aanvulling": "to 26", "District": "Antwerpen", "Postcode": "2060", "Objectcode": "VE_0000032", "Gebruik": "IN_GEBRUIK", "Aantal_plaatsen": 27, "Naam": "032 Permeke" }, "geometry": { "type": "Point", "coordinates": [ 4.420762239984564, 51.221693406738041 ] } },
{ "type": "Feature", "properties": { "OBJECTID": 8526, "Objecttype": "VELOSTATION", "Type_velo": "ENKELZIJDIG", "Ligging": "PARKEERZONE", "Straatnaam": "Pesthofstraat", "Huisnummer": "7", "Aanvulling": "to 7", "District": "Antwerpen", "Postcode": "2060", "Objectcode": "VE_0000114", "Gebruik": "IN_GEBRUIK", "Aantal_plaatsen": 21, "Naam": "114 ZNA Stuivenberg" }, "geometry": { "type": "Point", "coordinates": [ 4.433770997855821, 51.222063926784564 ] } },
{ "type": "Feature", "properties": { "OBJECTID": 8527, "Objecttype": "VELOSTATION", "Type_velo": "ENKELZIJDIG", "Ligging": "PARKEERZONE", "Straatnaam": "Minderbroedersrui", "Huisnummer": "46", "Aanvulling": "", "District": "Antwerpen", "Postcode": "2000", "Objectcode": "VE_0000056", "Gebruik": "IN_GEBRUIK", "Aantal_plaatsen": 30, "Naam": "056 Minderbroedersrui" }, "geometry": { "type": "Point", "coordinates": [ 4.404573522274011, 51.222198216802227 ] } },
{ "type": "Feature", "properties": { "OBJECTID": 8528, "Objecttype": "VELOSTATION", "Type_velo": "ENKELZIJDIG", "Ligging": "VOETPAD", "Straatnaam": "Sint-Elisabethstraat", "Huisnummer": "63", "Aanvulling": "thv greinstraat", "District": "Antwerpen", "Postcode": "2060", "Objectcode": "VE_0000115", "Gebruik": "IN_GEBRUIK", "Aantal_plaatsen": 21, "Naam": "115 Metro Elisabeth" }, "geometry": { "type": "Point", "coordinates": [ 4.424304551424431, 51.222786036814057 ] } },
{ "type": "Feature", "properties": { "OBJECTID": 8529, "Objecttype": "VELOSTATION", "Type_velo": "ENKELZIJDIG", "Ligging": "PARKEERZONE", "Straatnaam": "Jordaenskaai", "Huisnummer": "", "Aanvulling": "to saucierstraat", "District": "Antwerpen", "Postcode": "2000", "Objectcode": "VE_0000058", "Gebruik": "IN_GEBRUIK", "Aantal_plaatsen": 30, "Naam": "058 Noorderterras" }, "geometry": { "type": "Point", "coordinates": [ 4.399077054734239, 51.224349506389657 ] } },
{ "type": "Feature", "properties": { "OBJECTID": 8530, "Objecttype": "VELOSTATION", "Type_velo": "ENKELZIJDIG", "Ligging": "PARKEERZONE", "Straatnaam": "Paardenmarkt", "Huisnummer": "90", "Aanvulling": "thv kleine kauwenberg", "District": "Antwerpen", "Postcode": "2000", "Objectcode": "VE_0000053", "Gebruik": "IN_GEBRUIK", "Aantal_plaatsen": 21, "Naam": "053 Paardenmarkt" }, "geometry": { "type": "Point", "coordinates": [ 4.412209757001797, 51.224954716118226 ] } },
{ "type": "Feature", "properties": { "OBJECTID": 8531, "Objecttype": "VELOSTATION", "Type_velo": "ENKELZIJDIG", "Ligging": "VOETPAD", "Straatnaam": "Pothoekstraat", "Huisnummer": "122", "Aanvulling": "to 122", "District": "Antwerpen", "Postcode": "2060", "Objectcode": "VE_0000122", "Gebruik": "IN_GEBRUIK", "Aantal_plaatsen": 21, "Naam": "122 Schijnpoort" }, "geometry": { "type": "Point", "coordinates": [ 4.436588478508893, 51.224702426213852 ] } },
{ "type": "Feature", "properties": { "OBJECTID": 8532, "Objecttype": "VELOSTATION", "Type_velo": "ENKELZIJDIG", "Ligging": "PLEIN", "Straatnaam": "Sint-Jansplein", "Huisnummer": "17", "Aanvulling": "to 17", "District": "Antwerpen", "Postcode": "2060", "Objectcode": "VE_0000117", "Gebruik": "IN_GEBRUIK", "Aantal_plaatsen": 30, "Naam": "117 Sint-Jansplein" }, "geometry": { "type": "Point", "coordinates": [ 4.418392826584771, 51.225487432479817 ] } },
{ "type": "Feature", "properties": { "OBJECTID": 8533, "Objecttype": "VELOSTATION", "Type_velo": "DUBBELZIJDIG", "Ligging": "VOETPAD", "Straatnaam": "Entrepotkaai", "Huisnummer": "15", "Aanvulling": "verplaatst van italielei nr Entrepotkaai", "District": "Antwerpen", "Postcode": "2000", "Objectcode": "VE_0000052", "Gebruik": "IN_GEBRUIK", "Aantal_plaatsen": 36, "Naam": "052 Waaslandtunnel" }, "geometry": { "type": "Point", "coordinates": [ 4.411593756271868, 51.228142480388115 ] } },
{ "type": "Feature", "properties": { "OBJECTID": 8534, "Objecttype": "VELOSTATION", "Type_velo": "ENKELZIJDIG", "Ligging": "PARKEERZONE", "Straatnaam": "Sint-Pietersvliet", "Huisnummer": "", "Aanvulling": "thv tolhuis", "District": "Antwerpen", "Postcode": "2000", "Objectcode": "VE_0000049", "Gebruik": "IN_GEBRUIK", "Aantal_plaatsen": 27, "Naam": "049 Tolhuis" }, "geometry": { "type": "Point", "coordinates": [ 4.400851419949555, 51.225851061032763 ] } },
{ "type": "Feature", "properties": { "OBJECTID": 8535, "Objecttype": "VELOSTATION", "Type_velo": "ENKELZIJDIG", "Ligging": "VOETPAD", "Straatnaam": "Hessenplein", "Huisnummer": "2", "Aanvulling": "", "District": "Antwerpen", "Postcode": "2000", "Objectcode": "VE_0000033", "Gebruik": "IN_GEBRUIK", "Aantal_plaatsen": 21, "Naam": "033 Hessenhuis" }, "geometry": { "type": "Point", "coordinates": [ 4.409626709982803, 51.226199873904747 ] } },
{ "type": "Feature", "properties": { "OBJECTID": 8536, "Objecttype": "VELOSTATION", "Type_velo": "DUBBELZIJDIG", "Ligging": "VOETPAD", "Straatnaam": "Sint-Aldegondiskaai", "Huisnummer": "2", "Aanvulling": "thv Bonapartedok", "District": "Antwerpen", "Postcode": "2000", "Objectcode": "VE_0000135", "Gebruik": "IN_GEBRUIK", "Aantal_plaatsen": 36, "Naam": "135 Loodswezen" }, "geometry": { "type": "Point", "coordinates": [ 4.402209222510018, 51.227950938734018 ] } },
{ "type": "Feature", "properties": { "OBJECTID": 8537, "Objecttype": "VELOSTATION", "Type_velo": "DUBBELZIJDIG", "Ligging": "VOETPAD", "Straatnaam": "Oudeleeuwenrui", "Huisnummer": "2", "Aanvulling": "", "District": "Antwerpen", "Postcode": "2000", "Objectcode": "VE_0000045", "Gebruik": "IN_GEBRUIK", "Aantal_plaatsen": 36, "Naam": "045 Falconplein" }, "geometry": { "type": "Point", "coordinates": [ 4.405504015126345, 51.226879323798158 ] } },
{ "type": "Feature", "properties": { "OBJECTID": 8538, "Objecttype": "VELOSTATION", "Type_velo": "DUBBELZIJDIG", "Ligging": "PLEIN", "Straatnaam": "Godefriduskaai", "Huisnummer": "", "Aanvulling": "thv oostendekaai", "District": "Antwerpen", "Postcode": "2000", "Objectcode": "VE_0000134", "Gebruik": "IN_GEBRUIK", "Aantal_plaatsen": 36, "Naam": "134 MAS" }, "geometry": { "type": "Point", "coordinates": [ 4.405719638157337, 51.228127070351562 ] } },
{ "type": "Feature", "properties": { "OBJECTID": 8539, "Objecttype": "VELOSTATION", "Type_velo": "DUBBELZIJDIG", "Ligging": "PARKEERZONE", "Straatnaam": "Viséstraat", "Huisnummer": "14", "Aanvulling": "", "District": "Antwerpen", "Postcode": "2060", "Objectcode": "VE_0000123", "Gebruik": "IN_GEBRUIK", "Aantal_plaatsen": 18, "Naam": "123 Park Spoor Noord 2" }, "geometry": { "type": "Point", "coordinates": [ 4.424730014495805, 51.229101215016485 ] } },
{ "type": "Feature", "properties": { "OBJECTID": 8540, "Objecttype": "VELOSTATION", "Type_velo": "ENKELZIJDIG", "Ligging": "VOETPAD", "Straatnaam": "Entrepotplaats", "Huisnummer": "1", "Aanvulling": "", "District": "Antwerpen", "Postcode": "2000", "Objectcode": "VE_0000133", "Gebruik": "IN_GEBRUIK", "Aantal_plaatsen": 24, "Naam": "133 Willemdok" }, "geometry": { "type": "Point", "coordinates": [ 4.411376599712485, 51.22948095206597 ] } },
{ "type": "Feature", "properties": { "OBJECTID": 8541, "Objecttype": "VELOSTATION", "Type_velo": "ENKELZIJDIG", "Ligging": "GROENZONE", "Straatnaam": "Ellermanstraat", "Huisnummer": "74", "Aanvulling": "to 74", "District": "Antwerpen", "Postcode": "2060", "Objectcode": "VE_0000124", "Gebruik": "IN_GEBRUIK", "Aantal_plaatsen": 30, "Naam": "124 Park Spoor Noord 1" }, "geometry": { "type": "Point", "coordinates": [ 4.419418612709864, 51.229924714923982 ] } },
{ "type": "Feature", "properties": { "OBJECTID": 8542, "Objecttype": "VELOSTATION", "Type_velo": "DUBBELZIJDIG", "Ligging": "VOETPAD", "Straatnaam": "Turnhoutsebaan", "Huisnummer": "366", "Aanvulling": "thv stenenbrug                 ", "District": "Borgerhout", "Postcode": "2140", "Objectcode": "VE_0000068", "Gebruik": "IN_GEBRUIK", "Aantal_plaatsen": 30, "Naam": "068 Turnhoutsepoort" }, "geometry": { "type": "Point", "coordinates": [ 4.443710164581229, 51.21453008808227 ] } },
{ "type": "Feature", "properties": { "OBJECTID": 8543, "Objecttype": "VELOSTATION", "Type_velo": "DUBBELZIJDIG", "Ligging": "VOETPAD", "Straatnaam": "Lange Lobroekstraat", "Huisnummer": "220", "Aanvulling": "to", "District": "Antwerpen", "Postcode": "2060", "Objectcode": "VE_0000062", "Gebruik": "IN_GEBRUIK", "Aantal_plaatsen": 24, "Naam": "062 Station Dam" }, "geometry": { "type": "Point", "coordinates": [ 4.42699430853746, 51.231781189927858 ] } },
{ "type": "Feature", "properties": { "OBJECTID": 8544, "Objecttype": "VELOSTATION", "Type_velo": "ENKELZIJDIG", "Ligging": "VOETPAD", "Straatnaam": "Lange Lobroekstraat", "Huisnummer": "93", "Aanvulling": "to", "District": "Antwerpen", "Postcode": "2060", "Objectcode": "VE_0000063", "Gebruik": "IN_GEBRUIK", "Aantal_plaatsen": 36, "Naam": "063 Slachthuis" }, "geometry": { "type": "Point", "coordinates": [ 4.431672861422027, 51.229932573256427 ] } },
{ "type": "Feature", "properties": { "OBJECTID": 8545, "Objecttype": "VELOSTATION", "Type_velo": "ENKELZIJDIG", "Ligging": "VOETPAD", "Straatnaam": "Pastorijstraat", "Huisnummer": "28", "Aanvulling": "to", "District": "Antwerpen", "Postcode": "2060", "Objectcode": "VE_0000038", "Gebruik": "IN_GEBRUIK", "Aantal_plaatsen": 21, "Naam": "038 Pastorijstraat" }, "geometry": { "type": "Point", "coordinates": [ 4.432655281796165, 51.220103587907886 ] } },
{ "type": "Feature", "properties": { "OBJECTID": 8546, "Objecttype": "VELOSTATION", "Type_velo": "DUBBELZIJDIG", "Ligging": "VOETPAD", "Straatnaam": "Maarschalk Gérardstraat", "Huisnummer": "25a", "Aanvulling": "", "District": "Antwerpen", "Postcode": "2000", "Objectcode": "VE_0000073", "Gebruik": "IN_GEBRUIK", "Aantal_plaatsen": 36, "Naam": "073 Maarschalk Gerard" }, "geometry": { "type": "Point", "coordinates": [ 4.403639660134001, 51.21231823198265 ] } },
{ "type": "Feature", "properties": { "OBJECTID": 8547, "Objecttype": "VELOSTATION", "Type_velo": "DUBBELZIJDIG", "Ligging": "GROENZONE", "Straatnaam": "Jan Van Rijswijcklaan", "Huisnummer": "", "Aanvulling": "thv de Singel", "District": "Antwerpen", "Postcode": "2018", "Objectcode": "VE_0000013", "Gebruik": "IN_GEBRUIK", "Aantal_plaatsen": 36, "Naam": "013 De Singel" }, "geometry": { "type": "Point", "coordinates": [ 4.402279999447833, 51.193786373040318 ] } },
{ "type": "Feature", "properties": { "OBJECTID": 8548, "Objecttype": "VELOSTATION", "Type_velo": "ENKELZIJDIG", "Ligging": "VOETPAD", "Straatnaam": "De Keyserlei", "Huisnummer": "61", "Aanvulling": "", "District": "Antwerpen", "Postcode": "2018", "Objectcode": "VE_0000048", "Gebruik": "IN_GEBRUIK", "Aantal_plaatsen": 33, "Naam": "048 De Keyserlei 2" }, "geometry": { "type": "Point", "coordinates": [ 4.41997153218503, 51.217335218136284 ] } },
{ "type": "Feature", "properties": { "OBJECTID": 8549, "Objecttype": "VELOSTATION", "Type_velo": "ENKELZIJDIG", "Ligging": "VOETGANGERSZONE", "Straatnaam": "Hardenvoort", "Huisnummer": "", "Aanvulling": "", "District": "Antwerpen", "Postcode": "2060", "Objectcode": "VE_0000136", "Gebruik": "IN_GEBRUIK", "Aantal_plaatsen": 33, "Naam": "136 Spoor Noord Skatebowl" }, "geometry": { "type": "Point", "coordinates": [ 4.421091978739403, 51.231745413129779 ] } },
{ "type": "Feature", "properties": { "OBJECTID": 8550, "Objecttype": "VELOSTATION", "Type_velo": "ENKELZIJDIG", "Ligging": "VOETPAD", "Straatnaam": "Terloplein", "Huisnummer": "64", "Aanvulling": "to 64 pleintje", "District": "Borgerhout", "Postcode": "2140", "Objectcode": "VE_0000154", "Gebruik": "IN_GEBRUIK", "Aantal_plaatsen": 33, "Naam": "154 Terloplein" }, "geometry": { "type": "Point", "coordinates": [ 4.443907703600757, 51.219029751370329 ] } },
{ "type": "Feature", "properties": { "OBJECTID": 8551, "Objecttype": "VELOSTATION", "Type_velo": "DUBBELZIJDIG", "Ligging": "VOETGANGERSZONE", "Straatnaam": "Statielei", "Huisnummer": "27", "Aanvulling": "to 27 naast spoorwegbrug", "District": "Borgerhout", "Postcode": "2140", "Objectcode": "VE_0000155", "Gebruik": "IN_GEBRUIK", "Aantal_plaatsen": 36, "Naam": "155 Statielei" }, "geometry": { "type": "Point", "coordinates": [ 4.445645497401318, 51.216191945030495 ] } },
{ "type": "Feature", "properties": { "OBJECTID": 8552, "Objecttype": "VELOSTATION", "Type_velo": "DUBBELZIJDIG", "Ligging": "MIDDENBERM", "Straatnaam": "Binnensingel", "Huisnummer": "", "Aanvulling": "aan binnensingel", "District": "Berchem", "Postcode": "2600", "Objectcode": "VE_0000157", "Gebruik": "IN_GEBRUIK", "Aantal_plaatsen": 36, "Naam": "157 Berchem kerk" }, "geometry": { "type": "Point", "coordinates": [ 4.421510684580257, 51.192566217925645 ] } },
{ "type": "Feature", "properties": { "OBJECTID": 8553, "Objecttype": "VELOSTATION", "Type_velo": "DUBBELZIJDIG", "Ligging": "PLEIN", "Straatnaam": "Zuidervelodroom", "Huisnummer": "55", "Aanvulling": "", "District": "Antwerpen", "Postcode": "2018", "Objectcode": "VE_0000158", "Gebruik": "IN_GEBRUIK", "Aantal_plaatsen": 36, "Naam": "158 Zuidervelodroom" }, "geometry": { "type": "Point", "coordinates": [ 4.398354572268521, 51.201938225492576 ] } },
{ "type": "Feature", "properties": { "OBJECTID": 8554, "Objecttype": "VELOSTATION", "Type_velo": "DUBBELZIJDIG", "Ligging": "VOETPAD", "Straatnaam": "Boudewijnssteeg", "Huisnummer": "1", "Aanvulling": " fase 3", "District": "Antwerpen", "Postcode": "2018", "Objectcode": "VE_0000159", "Gebruik": "IN_GEBRUIK", "Aantal_plaatsen": 30, "Naam": "159 Den Bell 2" }, "geometry": { "type": "Point", "coordinates": [ 4.39932133135339, 51.205538995497378 ] } },
{ "type": "Feature", "properties": { "OBJECTID": 8555, "Objecttype": "VELOSTATION", "Type_velo": "DUBBELZIJDIG", "Ligging": "GROENZONE", "Straatnaam": "Brusselstraat", "Huisnummer": "5", "Aanvulling": "to 5", "District": "Antwerpen", "Postcode": "2018", "Objectcode": "VE_0000160", "Gebruik": "IN_GEBRUIK", "Aantal_plaatsen": 36, "Naam": "160 Vlinderpaleis" }, "geometry": { "type": "Point", "coordinates": [ 4.388904014725321, 51.203341994704914 ] } },
{ "type": "Feature", "properties": { "OBJECTID": 8556, "Objecttype": "VELOSTATION", "Type_velo": "DUBBELZIJDIG", "Ligging": "VOETPAD", "Straatnaam": "Havanastraat", "Huisnummer": "1", "Aanvulling": "", "District": "Antwerpen", "Postcode": "2030", "Objectcode": "VE_0000201", "Gebruik": "IN_GEBRUIK", "Aantal_plaatsen": 36, "Naam": "201 Havana" }, "geometry": { "type": "Point", "coordinates": [ 4.418651302674978, 51.262819137766236 ] } },
{ "type": "Feature", "properties": { "OBJECTID": 8557, "Objecttype": "VELOSTATION", "Type_velo": "ENKELZIJDIG", "Ligging": "VOETPAD", "Straatnaam": "Houstonstraat", "Huisnummer": "", "Aanvulling": "to Canadalaan", "District": "Antwerpen", "Postcode": "2030", "Objectcode": "VE_0000202", "Gebruik": "IN_GEBRUIK", "Aantal_plaatsen": 24, "Naam": "202 Squarepark" }, "geometry": { "type": "Point", "coordinates": [ 4.421229870949259, 51.257283365759434 ] } },
{ "type": "Feature", "properties": { "OBJECTID": 8558, "Objecttype": "VELOSTATION", "Type_velo": "DUBBELZIJDIG", "Ligging": "GROENZONE", "Straatnaam": "Columbiastraat", "Huisnummer": "", "Aanvulling": "thv Venezuelastraat", "District": "Antwerpen", "Postcode": "2030", "Objectcode": "VE_0000203", "Gebruik": "IN_GEBRUIK", "Aantal_plaatsen": 36, "Naam": "203 Venezuelastraat" }, "geometry": { "type": "Point", "coordinates": [ 4.423201251557952, 51.25356987490273 ] } },
{ "type": "Feature", "properties": { "OBJECTID": 8559, "Objecttype": "VELOSTATION", "Type_velo": "DUBBELZIJDIG", "Ligging": "PLEIN", "Straatnaam": "Noorderlaan", "Huisnummer": "104B-104C", "Aanvulling": "", "District": "Antwerpen", "Postcode": "2030", "Objectcode": "VE_0000204", "Gebruik": "IN_GEBRUIK", "Aantal_plaatsen": 36, "Naam": "204 Luchtbal winkelcentrum" }, "geometry": { "type": "Point", "coordinates": [ 4.420886241210829, 51.249991222561079 ] } },
{ "type": "Feature", "properties": { "OBJECTID": 8560, "Objecttype": "VELOSTATION", "Type_velo": "DUBBELZIJDIG", "Ligging": "GROENZONE", "Straatnaam": "Groenendaallaan", "Huisnummer": "397A", "Aanvulling": "", "District": "Antwerpen", "Postcode": "2030", "Objectcode": "VE_0000205", "Gebruik": "IN_GEBRUIK", "Aantal_plaatsen": 36, "Naam": "205 Kinepolis" }, "geometry": { "type": "Point", "coordinates": [ 4.414447459658219, 51.244834510594295 ] } },
{ "type": "Feature", "properties": { "OBJECTID": 8561, "Objecttype": "VELOSTATION", "Type_velo": "ENKELZIJDIG", "Ligging": "PLEIN", "Straatnaam": "Bermstraat", "Huisnummer": "", "Aanvulling": "hoek Groenendaallaan", "District": "Antwerpen", "Postcode": "2030", "Objectcode": "VE_0000206", "Gebruik": "IN_GEBRUIK", "Aantal_plaatsen": 33, "Naam": "206 Station Luchtbal" }, "geometry": { "type": "Point", "coordinates": [ 4.423143569351606, 51.244390442160693 ] } },
{ "type": "Feature", "properties": { "OBJECTID": 8562, "Objecttype": "VELOSTATION", "Type_velo": "DUBBELZIJDIG", "Ligging": "GROENZONE", "Straatnaam": "Van Praetlei", "Huisnummer": "252", "Aanvulling": "to 252", "District": "Merksem", "Postcode": "2170", "Objectcode": "VE_0000207", "Gebruik": "IN_GEBRUIK", "Aantal_plaatsen": 36, "Naam": "207 P&R Merksem" }, "geometry": { "type": "Point", "coordinates": [ 4.462201612783169, 51.258409740590956 ] } },
{ "type": "Feature", "properties": { "OBJECTID": 8563, "Objecttype": "VELOSTATION", "Type_velo": "ENKELZIJDIG", "Ligging": "VOETPAD", "Straatnaam": "Ringlaan", "Huisnummer": "74", "Aanvulling": "to 74", "District": "Merksem", "Postcode": "2170", "Objectcode": "VE_0000208", "Gebruik": "IN_GEBRUIK", "Aantal_plaatsen": 36, "Naam": "208 Ringlaan Atheneum" }, "geometry": { "type": "Point", "coordinates": [ 4.45439058485794, 51.254540303068104 ] } },
{ "type": "Feature", "properties": { "OBJECTID": 8564, "Objecttype": "VELOSTATION", "Type_velo": "DUBBELZIJDIG", "Ligging": "VOETPAD", "Straatnaam": "Korte Bremstraat", "Huisnummer": "2", "Aanvulling": "to Laaglandlaan", "District": "Merksem", "Postcode": "2170", "Objectcode": "VE_0000209", "Gebruik": "IN_GEBRUIK", "Aantal_plaatsen": 36, "Naam": "209 Melgeshof" }, "geometry": { "type": "Point", "coordinates": [ 4.447145133353736, 51.256480169520223 ] } },
{ "type": "Feature", "properties": { "OBJECTID": 8565, "Objecttype": "VELOSTATION", "Type_velo": "DUBBELZIJDIG", "Ligging": "GROENZONE", "Straatnaam": "Maantjessteenweg", "Huisnummer": "175", "Aanvulling": "", "District": "Merksem", "Postcode": "2170", "Objectcode": "VE_0000210", "Gebruik": "IN_GEBRUIK", "Aantal_plaatsen": 36, "Naam": "210 Maantjessteenweg" }, "geometry": { "type": "Point", "coordinates": [ 4.43577242312285, 51.255279019616189 ] } },
{ "type": "Feature", "properties": { "OBJECTID": 8566, "Objecttype": "VELOSTATION", "Type_velo": "DUBBELZIJDIG", "Ligging": "GROENZONE", "Straatnaam": "Rodeloopstraat", "Huisnummer": "67", "Aanvulling": "to 67", "District": "Merksem", "Postcode": "2170", "Objectcode": "VE_0000211", "Gebruik": "IN_GEBRUIK", "Aantal_plaatsen": 36, "Naam": "211 Cultuurcentrum" }, "geometry": { "type": "Point", "coordinates": [ 4.437270661708439, 51.251239726371317 ] } },
{ "type": "Feature", "properties": { "OBJECTID": 8567, "Objecttype": "VELOSTATION", "Type_velo": "DUBBELZIJDIG", "Ligging": "GROENZONE", "Straatnaam": "Rodeloopstraat", "Huisnummer": "1-3", "Aanvulling": "to 1-3", "District": "Merksem", "Postcode": "2170", "Objectcode": "VE_0000212", "Gebruik": "IN_GEBRUIK", "Aantal_plaatsen": 36, "Naam": "212 Rode Loop" }, "geometry": { "type": "Point", "coordinates": [ 4.442238023242618, 51.250901258330835 ] } },
{ "type": "Feature", "properties": { "OBJECTID": 8568, "Objecttype": "VELOSTATION", "Type_velo": "ENKELZIJDIG", "Ligging": "PLEIN", "Straatnaam": "Kroonplein", "Huisnummer": "28", "Aanvulling": "to 28", "District": "Merksem", "Postcode": "2170", "Objectcode": "VE_0000213", "Gebruik": "IN_GEBRUIK", "Aantal_plaatsen": 30, "Naam": "213 Kroonplein" }, "geometry": { "type": "Point", "coordinates": [ 4.448062243685046, 51.251487981965155 ] } },
{ "type": "Feature", "properties": { "OBJECTID": 8569, "Objecttype": "VELOSTATION", "Type_velo": "DUBBELZIJDIG", "Ligging": "GROENZONE", "Straatnaam": "Lambrechtshoekenlaan", "Huisnummer": "133-135", "Aanvulling": "", "District": "Merksem", "Postcode": "2170", "Objectcode": "VE_0000214", "Gebruik": "IN_GEBRUIK", "Aantal_plaatsen": 36, "Naam": "214 Kerkhofblommen" }, "geometry": { "type": "Point", "coordinates": [ 4.433051933085558, 51.247974596124799 ] } },
{ "type": "Feature", "properties": { "OBJECTID": 8570, "Objecttype": "VELOSTATION", "Type_velo": "ENKELZIJDIG", "Ligging": "VOETPAD", "Straatnaam": "Nieuwdreef", "Huisnummer": "107", "Aanvulling": "", "District": "Merksem", "Postcode": "2170", "Objectcode": "VE_0000215", "Gebruik": "IN_GEBRUIK", "Aantal_plaatsen": 36, "Naam": "215 Nieuwdreef" }, "geometry": { "type": "Point", "coordinates": [ 4.440276794513066, 51.24676034006373 ] } },
{ "type": "Feature", "properties": { "OBJECTID": 8571, "Objecttype": "VELOSTATION", "Type_velo": "DUBBELZIJDIG", "Ligging": "PLEIN", "Straatnaam": "Van Heybeeckstraat", "Huisnummer": "28", "Aanvulling": "to 28", "District": "Merksem", "Postcode": "2170", "Objectcode": "VE_0000216", "Gebruik": "IN_GEBRUIK", "Aantal_plaatsen": 30, "Naam": "216 Zwembad Merksem" }, "geometry": { "type": "Point", "coordinates": [ 4.448924279545035, 51.247257914719505 ] } },
{ "type": "Feature", "properties": { "OBJECTID": 8572, "Objecttype": "VELOSTATION", "Type_velo": "ENKELZIJDIG", "Ligging": "GROENZONE", "Straatnaam": "Bredabaan", "Huisnummer": "768", "Aanvulling": "to 768", "District": "Merksem", "Postcode": "2170", "Objectcode": "VE_0000217", "Gebruik": "IN_GEBRUIK", "Aantal_plaatsen": 30, "Naam": "217 Joske Vermeulen" }, "geometry": { "type": "Point", "coordinates": [ 4.454785612620144, 51.249088649012826 ] } },
{ "type": "Feature", "properties": { "OBJECTID": 8573, "Objecttype": "VELOSTATION", "Type_velo": "DUBBELZIJDIG", "Ligging": "PLEIN", "Straatnaam": "Ullenshofstraat", "Huisnummer": "3", "Aanvulling": "to 3", "District": "Merksem", "Postcode": "2170", "Objectcode": "VE_0000218", "Gebruik": "IN_GEBRUIK", "Aantal_plaatsen": 36, "Naam": "218 Groenendaalcollege" }, "geometry": { "type": "Point", "coordinates": [ 4.435787168220478, 51.243030738672907 ] } },
{ "type": "Feature", "properties": { "OBJECTID": 8574, "Objecttype": "VELOSTATION", "Type_velo": "ENKELZIJDIG", "Ligging": "VOETPAD", "Straatnaam": "Borrewaterstraat", "Huisnummer": "8", "Aanvulling": "", "District": "Merksem", "Postcode": "2170", "Objectcode": "VE_0000219", "Gebruik": "IN_GEBRUIK", "Aantal_plaatsen": 33, "Naam": "219 Districtshuis Merksem" }, "geometry": { "type": "Point", "coordinates": [ 4.442492654715167, 51.24218450722099 ] } },
{ "type": "Feature", "properties": { "OBJECTID": 8575, "Objecttype": "VELOSTATION", "Type_velo": "DUBBELZIJDIG", "Ligging": "PLEIN", "Straatnaam": "Sint-Bartholomeusstraat", "Huisnummer": "122", "Aanvulling": "", "District": "Merksem", "Postcode": "2170", "Objectcode": "VE_0000220", "Gebruik": "IN_GEBRUIK", "Aantal_plaatsen": 30, "Naam": "220 't Dokske" }, "geometry": { "type": "Point", "coordinates": [ 4.447350525057153, 51.243109742923288 ] } },
{ "type": "Feature", "properties": { "OBJECTID": 8576, "Objecttype": "VELOSTATION", "Type_velo": "DUBBELZIJDIG", "Ligging": "VOETPAD", "Straatnaam": "Binnenvaartstraat", "Huisnummer": "", "Aanvulling": "to Cadixstraat", "District": "Antwerpen", "Postcode": "2000", "Objectcode": "VE_0000222", "Gebruik": "IN_GEBRUIK", "Aantal_plaatsen": 36, "Naam": "222 Cadix Oost" }, "geometry": { "type": "Point", "coordinates": [ 4.413863538474157, 51.233341245046766 ] } },
{ "type": "Feature", "properties": { "OBJECTID": 8577, "Objecttype": "VELOSTATION", "Type_velo": "DUBBELZIJDIG", "Ligging": "VOETPAD", "Straatnaam": "Rijnkaai", "Huisnummer": "15", "Aanvulling": "", "District": "Antwerpen", "Postcode": "2000", "Objectcode": "VE_0000223", "Gebruik": "IN_GEBRUIK", "Aantal_plaatsen": 36, "Naam": "223 Red Star Line" }, "geometry": { "type": "Point", "coordinates": [ 4.403080041957716, 51.233367980379938 ] } },
{ "type": "Feature", "properties": { "OBJECTID": 8578, "Objecttype": "VELOSTATION", "Type_velo": "ENKELZIJDIG", "Ligging": "VOETPAD", "Straatnaam": "Indiëstraat", "Huisnummer": "3", "Aanvulling": "", "District": "Antwerpen", "Postcode": "2030", "Objectcode": "VE_0000224", "Gebruik": "IN_GEBRUIK", "Aantal_plaatsen": 36, "Naam": "224 Indiëstraat" }, "geometry": { "type": "Point", "coordinates": [ 4.409822585664036, 51.234548441637642 ] } },
{ "type": "Feature", "properties": { "OBJECTID": 8579, "Objecttype": "VELOSTATION", "Type_velo": "DUBBELZIJDIG", "Ligging": "VOETPAD", "Straatnaam": "Verbindingsdok-Oostkaai", "Huisnummer": "9", "Aanvulling": "to 9", "District": "Antwerpen", "Postcode": "2000", "Objectcode": "VE_0000225", "Gebruik": "IN_GEBRUIK", "Aantal_plaatsen": 36, "Naam": "225 Verbindingsdok Eilandje" }, "geometry": { "type": "Point", "coordinates": [ 4.407665155135269, 51.230579282946024 ] } },
{ "type": "Feature", "properties": { "OBJECTID": 8580, "Objecttype": "VELOSTATION", "Type_velo": "DUBBELZIJDIG", "Ligging": "GROENZONE", "Straatnaam": "Noordschippersdok", "Huisnummer": "", "Aanvulling": "terug naar Ijzerlaan", "District": "Antwerpen", "Postcode": "2060", "Objectcode": "VE_0000226", "Gebruik": "IN_GEBRUIK", "Aantal_plaatsen": 36, "Naam": "226 Noordschippersdok" }, "geometry": { "type": "Point", "coordinates": [ 4.429810317765501, 51.233968047051746 ] } },
{ "type": "Feature", "properties": { "OBJECTID": 8581, "Objecttype": "VELOSTATION", "Type_velo": "ENKELZIJDIG", "Ligging": "PLEIN", "Straatnaam": "Van Cortbeemdelei", "Huisnummer": "113", "Aanvulling": "to 113 oh plein", "District": "Deurne", "Postcode": "2100", "Objectcode": "VE_0000227", "Gebruik": "IN_GEBRUIK", "Aantal_plaatsen": 24, "Naam": "227 Amstel" }, "geometry": { "type": "Point", "coordinates": [ 4.44448798500003, 51.232849146937745 ] } },
{ "type": "Feature", "properties": { "OBJECTID": 8582, "Objecttype": "VELOSTATION", "Type_velo": "ENKELZIJDIG", "Ligging": "PLEIN", "Straatnaam": "Van Deynsestraat", "Huisnummer": "120", "Aanvulling": "to 120", "District": "Deurne", "Postcode": "2100", "Objectcode": "VE_0000228", "Gebruik": "IN_GEBRUIK", "Aantal_plaatsen": 24, "Naam": "228 Van Heetvelde" }, "geometry": { "type": "Point", "coordinates": [ 4.451269251142199, 51.229791391499738 ] } },
{ "type": "Feature", "properties": { "OBJECTID": 8583, "Objecttype": "VELOSTATION", "Type_velo": "DUBBELZIJDIG", "Ligging": "GROENZONE", "Straatnaam": "Jozef Nellenslei", "Huisnummer": "26", "Aanvulling": "", "District": "Deurne", "Postcode": "2100", "Objectcode": "VE_0000229", "Gebruik": "IN_GEBRUIK", "Aantal_plaatsen": 36, "Naam": "229 Jozef Nellens" }, "geometry": { "type": "Point", "coordinates": [ 4.451950653425481, 51.226286161673833 ] } },
{ "type": "Feature", "properties": { "OBJECTID": 8584, "Objecttype": "VELOSTATION", "Type_velo": "DUBBELZIJDIG", "Ligging": "PLEIN", "Straatnaam": "Sint-Fredegandusstraat", "Huisnummer": "80", "Aanvulling": "", "District": "Deurne", "Postcode": "2100", "Objectcode": "VE_0000230", "Gebruik": "IN_GEBRUIK", "Aantal_plaatsen": 36, "Naam": "230 Bosuil" }, "geometry": { "type": "Point", "coordinates": [ 4.461981121295277, 51.229171064109849 ] } },
{ "type": "Feature", "properties": { "OBJECTID": 8585, "Objecttype": "VELOSTATION", "Type_velo": "DUBBELZIJDIG", "Ligging": "GROENZONE", "Straatnaam": "Gallifortlei", "Huisnummer": "278", "Aanvulling": "", "District": "Deurne", "Postcode": "2100", "Objectcode": "VE_0000231", "Gebruik": "IN_GEBRUIK", "Aantal_plaatsen": 36, "Naam": "231 den Antwerp" }, "geometry": { "type": "Point", "coordinates": [ 4.467828105544831, 51.229295864744991 ] } },
{ "type": "Feature", "properties": { "OBJECTID": 8586, "Objecttype": "VELOSTATION", "Type_velo": "DUBBELZIJDIG", "Ligging": "PLEIN", "Straatnaam": "Wim Saerensplein", "Huisnummer": "25", "Aanvulling": "", "District": "Deurne", "Postcode": "2100", "Objectcode": "VE_0000232", "Gebruik": "IN_GEBRUIK", "Aantal_plaatsen": 36, "Naam": "232 Wim Saerens" }, "geometry": { "type": "Point", "coordinates": [ 4.478564807255608, 51.228488906522379 ] } },
{ "type": "Feature", "properties": { "OBJECTID": 8587, "Objecttype": "VELOSTATION", "Type_velo": "DUBBELZIJDIG", "Ligging": "VOETPAD", "Straatnaam": "Gallifortlei", "Huisnummer": "198", "Aanvulling": "", "District": "Deurne", "Postcode": "2100", "Objectcode": "VE_0000233", "Gebruik": "IN_GEBRUIK", "Aantal_plaatsen": 36, "Naam": "233 Gallifort" }, "geometry": { "type": "Point", "coordinates": [ 4.466072238436425, 51.225110962060803 ] } },
{ "type": "Feature", "properties": { "OBJECTID": 8588, "Objecttype": "VELOSTATION", "Type_velo": "ENKELZIJDIG", "Ligging": "VOETPAD", "Straatnaam": "Jan Brochovenstraat", "Huisnummer": "28", "Aanvulling": "", "District": "Deurne", "Postcode": "2100", "Objectcode": "VE_0000234", "Gebruik": "IN_GEBRUIK", "Aantal_plaatsen": 36, "Naam": "234 Deurne Atheneum" }, "geometry": { "type": "Point", "coordinates": [ 4.46118429715201, 51.222201852010315 ] } },
{ "type": "Feature", "properties": { "OBJECTID": 8589, "Objecttype": "VELOSTATION", "Type_velo": "DUBBELZIJDIG", "Ligging": "PLEIN", "Straatnaam": "Cogelsplein", "Huisnummer": "19-21", "Aanvulling": "", "District": "Deurne", "Postcode": "2100", "Objectcode": "VE_0000235", "Gebruik": "IN_GEBRUIK", "Aantal_plaatsen": 36, "Naam": "235 Cogelsplein" }, "geometry": { "type": "Point", "coordinates": [ 4.454866381859372, 51.219848447532655 ] } },
{ "type": "Feature", "properties": { "OBJECTID": 8590, "Objecttype": "VELOSTATION", "Type_velo": "DUBBELZIJDIG", "Ligging": "PLEIN", "Straatnaam": "Maurice Dequeeckerplein", "Huisnummer": "3", "Aanvulling": "to 3", "District": "Deurne", "Postcode": "2100", "Objectcode": "VE_0000236", "Gebruik": "IN_GEBRUIK", "Aantal_plaatsen": 36, "Naam": "236 Districthuis Deurne" }, "geometry": { "type": "Point", "coordinates": [ 4.460005987090694, 51.219172196074837 ] } },
{ "type": "Feature", "properties": { "OBJECTID": 8591, "Objecttype": "VELOSTATION", "Type_velo": "DUBBELZIJDIG", "Ligging": "GROENZONE", "Straatnaam": "Ter Rivierenlaan", "Huisnummer": "18", "Aanvulling": "", "District": "Deurne", "Postcode": "2100", "Objectcode": "VE_0000237", "Gebruik": "IN_GEBRUIK", "Aantal_plaatsen": 36, "Naam": "237 Ter Rivieren" }, "geometry": { "type": "Point", "coordinates": [ 4.469197209833101, 51.220475965393973 ] } },
{ "type": "Feature", "properties": { "OBJECTID": 8592, "Objecttype": "VELOSTATION", "Type_velo": "ENKELZIJDIG", "Ligging": "VOETPAD", "Straatnaam": "Ertbruggelaan", "Huisnummer": "2", "Aanvulling": "", "District": "Deurne", "Postcode": "2100", "Objectcode": "VE_0000238", "Gebruik": "IN_GEBRUIK", "Aantal_plaatsen": 24, "Naam": "238 Ertbrugge" }, "geometry": { "type": "Point", "coordinates": [ 4.475649689279153, 51.223740399571994 ] } },
{ "type": "Feature", "properties": { "OBJECTID": 8593, "Objecttype": "VELOSTATION", "Type_velo": "ENKELZIJDIG", "Ligging": "VOETPAD", "Straatnaam": "Ruggeveldlaan", "Huisnummer": "549", "Aanvulling": "", "District": "Deurne", "Postcode": "2100", "Objectcode": "VE_0000239", "Gebruik": "IN_GEBRUIK", "Aantal_plaatsen": 30, "Naam": "239 Zwarte Arend" }, "geometry": { "type": "Point", "coordinates": [ 4.479594785634852, 51.221226143736629 ] } },
{ "type": "Feature", "properties": { "OBJECTID": 8594, "Objecttype": "VELOSTATION", "Type_velo": "DUBBELZIJDIG", "Ligging": "VOETGANGERSZONE", "Straatnaam": "Ruggeveldlaan", "Huisnummer": "", "Aanvulling": "", "District": "Deurne", "Postcode": "2100", "Objectcode": "VE_0000240", "Gebruik": "IN_GEBRUIK", "Aantal_plaatsen": 36, "Naam": "240 Park Groot Schijn" }, "geometry": { "type": "Point", "coordinates": [ 4.482165783467686, 51.217319011679251 ] } },
{ "type": "Feature", "properties": { "OBJECTID": 8595, "Objecttype": "VELOSTATION", "Type_velo": "DUBBELZIJDIG", "Ligging": "GROENZONE", "Straatnaam": "Collegelaan", "Huisnummer": "42-44", "Aanvulling": "to 42-44", "District": "Borgerhout", "Postcode": "2140", "Objectcode": "VE_0000241", "Gebruik": "IN_GEBRUIK", "Aantal_plaatsen": 36, "Naam": "241 Kerkendijk" }, "geometry": { "type": "Point", "coordinates": [ 4.453441003520969, 51.213497386333856 ] } },
{ "type": "Feature", "properties": { "OBJECTID": 8596, "Objecttype": "VELOSTATION", "Type_velo": "DUBBELZIJDIG", "Ligging": "GROENZONE", "Straatnaam": "Luitenant Lippenslaan", "Huisnummer": "2", "Aanvulling": "to 2", "District": "Borgerhout", "Postcode": "2140", "Objectcode": "VE_0000242", "Gebruik": "IN_GEBRUIK", "Aantal_plaatsen": 36, "Naam": "242 Te Boelaerlei" }, "geometry": { "type": "Point", "coordinates": [ 4.45264703938229, 51.210289897029419 ] } },
{ "type": "Feature", "properties": { "OBJECTID": 8597, "Objecttype": "VELOSTATION", "Type_velo": "DUBBELZIJDIG", "Ligging": "GROENZONE", "Straatnaam": "Herentalsebaan", "Huisnummer": "133", "Aanvulling": "", "District": "Deurne", "Postcode": "2100", "Objectcode": "VE_0000243", "Gebruik": "IN_GEBRUIK", "Aantal_plaatsen": 36, "Naam": "243 Mestputteke" }, "geometry": { "type": "Point", "coordinates": [ 4.458201421137629, 51.209606289091028 ] } },
{ "type": "Feature", "properties": { "OBJECTID": 8598, "Objecttype": "VELOSTATION", "Type_velo": "DUBBELZIJDIG", "Ligging": "PARKEERZONE", "Straatnaam": "Herentalsebaan", "Huisnummer": "299", "Aanvulling": "", "District": "Deurne", "Postcode": "2100", "Objectcode": "VE_0000244", "Gebruik": "IN_GEBRUIK", "Aantal_plaatsen": 36, "Naam": "244 Waterbaan" }, "geometry": { "type": "Point", "coordinates": [ 4.465316595347613, 51.207784397142738 ] } },
{ "type": "Feature", "properties": { "OBJECTID": 8599, "Objecttype": "VELOSTATION", "Type_velo": "ENKELZIJDIG", "Ligging": "GROENZONE", "Straatnaam": "Florent Pauwelslei", "Huisnummer": "1", "Aanvulling": "to 18", "District": "Deurne", "Postcode": "2100", "Objectcode": "VE_0000245", "Gebruik": "IN_GEBRUIK", "Aantal_plaatsen": 36, "Naam": "245 AZ Monica" }, "geometry": { "type": "Point", "coordinates": [ 4.471316925992786, 51.20681148450474 ] } },
{ "type": "Feature", "properties": { "OBJECTID": 8600, "Objecttype": "VELOSTATION", "Type_velo": "DUBBELZIJDIG", "Ligging": "GROENZONE", "Straatnaam": "Arenaplein", "Huisnummer": "1", "Aanvulling": "to 1", "District": "Deurne", "Postcode": "2100", "Objectcode": "VE_0000246", "Gebruik": "IN_GEBRUIK", "Aantal_plaatsen": 36, "Naam": "246 Arena" }, "geometry": { "type": "Point", "coordinates": [ 4.458378017988291, 51.207081718556807 ] } },
{ "type": "Feature", "properties": { "OBJECTID": 8601, "Objecttype": "VELOSTATION", "Type_velo": "ENKELZIJDIG", "Ligging": "VOETPAD", "Straatnaam": "Luitenant Lippenslaan", "Huisnummer": "55-59", "Aanvulling": "", "District": "Borgerhout", "Postcode": "2140", "Objectcode": "VE_0000247", "Gebruik": "IN_GEBRUIK", "Aantal_plaatsen": 36, "Naam": "247 ZNA Erasmus" }, "geometry": { "type": "Point", "coordinates": [ 4.445967091084643, 51.208298425382353 ] } },
{ "type": "Feature", "properties": { "OBJECTID": 8602, "Objecttype": "VELOSTATION", "Type_velo": "DUBBELZIJDIG", "Ligging": "GROENZONE", "Straatnaam": "Berchemlei", "Huisnummer": "67", "Aanvulling": "to 67 thv De Schans", "District": "Borgerhout", "Postcode": "2140", "Objectcode": "VE_0000248", "Gebruik": "IN_GEBRUIK", "Aantal_plaatsen": 36, "Naam": "248 De Schans" }, "geometry": { "type": "Point", "coordinates": [ 4.449189291168071, 51.205932799642184 ] } },
{ "type": "Feature", "properties": { "OBJECTID": 8603, "Objecttype": "VELOSTATION", "Type_velo": "DUBBELZIJDIG", "Ligging": "VOETPAD", "Straatnaam": "Frans De Vriendtstraat", "Huisnummer": "61", "Aanvulling": "to 61", "District": "Borgerhout", "Postcode": "2140", "Objectcode": "VE_0000249", "Gebruik": "IN_GEBRUIK", "Aantal_plaatsen": 30, "Naam": "249 Frans de Vriendt" }, "geometry": { "type": "Point", "coordinates": [ 4.444223371375503, 51.203788575975494 ] } },
{ "type": "Feature", "properties": { "OBJECTID": 8604, "Objecttype": "VELOSTATION", "Type_velo": "DUBBELZIJDIG", "Ligging": "VOETPAD", "Straatnaam": "Diksmuidelaan", "Huisnummer": "8", "Aanvulling": "hoek Herculusstraat", "District": "Berchem", "Postcode": "2600", "Objectcode": "VE_0000250", "Gebruik": "IN_GEBRUIK", "Aantal_plaatsen": 36, "Naam": "250 Borsbeekbrug" }, "geometry": { "type": "Point", "coordinates": [ 4.439014758213852, 51.201024077294278 ] } },
{ "type": "Feature", "properties": { "OBJECTID": 8605, "Objecttype": "VELOSTATION", "Type_velo": "DUBBELZIJDIG", "Ligging": "GROENZONE", "Straatnaam": "Arthur Matthyslaan", "Huisnummer": "76", "Aanvulling": "to 76, to Thibautstraat", "District": "Borgerhout", "Postcode": "2140", "Objectcode": "VE_0000251", "Gebruik": "IN_GEBRUIK", "Aantal_plaatsen": 30, "Naam": "251Te Boelaerpark Noord" }, "geometry": { "type": "Point", "coordinates": [ 4.451998527083449, 51.203946475519757 ] } },
{ "type": "Feature", "properties": { "OBJECTID": 8606, "Objecttype": "VELOSTATION", "Type_velo": "ENKELZIJDIG", "Ligging": "VOETPAD", "Straatnaam": "Karel De Preterlei", "Huisnummer": "222", "Aanvulling": "to 222", "District": "Borgerhout", "Postcode": "2140", "Objectcode": "VE_0000252", "Gebruik": "IN_GEBRUIK", "Aantal_plaatsen": 33, "Naam": "252 Te Boelaerpark/Gitschotelei" }, "geometry": { "type": "Point", "coordinates": [ 4.450252729953853, 51.200129976420264 ] } },
{ "type": "Feature", "properties": { "OBJECTID": 8607, "Objecttype": "VELOSTATION", "Type_velo": "ENKELZIJDIG", "Ligging": "PLEIN", "Straatnaam": "Vosstraat", "Huisnummer": "19", "Aanvulling": "", "District": "Borgerhout", "Postcode": "2140", "Objectcode": "VE_0000253", "Gebruik": "IN_GEBRUIK", "Aantal_plaatsen": 36, "Naam": "253 Vosplein" }, "geometry": { "type": "Point", "coordinates": [ 4.453341960552116, 51.198134276599987 ] } },
{ "type": "Feature", "properties": { "OBJECTID": 8608, "Objecttype": "VELOSTATION", "Type_velo": "DUBBELZIJDIG", "Ligging": "MIDDENBERM", "Straatnaam": "Boekenberglei", "Huisnummer": "189", "Aanvulling": "", "District": "Deurne", "Postcode": "2100", "Objectcode": "VE_0000254", "Gebruik": "IN_GEBRUIK", "Aantal_plaatsen": 30, "Naam": "254 Sint-Jozef" }, "geometry": { "type": "Point", "coordinates": [ 4.459571775950853, 51.19757367068447 ] } },
{ "type": "Feature", "properties": { "OBJECTID": 8609, "Objecttype": "VELOSTATION", "Type_velo": "ENKELZIJDIG", "Ligging": "GROENZONE", "Straatnaam": "Van Den Hautelei", "Huisnummer": "90", "Aanvulling": "to 90", "District": "Deurne", "Postcode": "2100", "Objectcode": "VE_0000255", "Gebruik": "IN_GEBRUIK", "Aantal_plaatsen": 36, "Naam": "255 Van den Haute" }, "geometry": { "type": "Point", "coordinates": [ 4.467600409817056, 51.20416564309528 ] } },
{ "type": "Feature", "properties": { "OBJECTID": 8610, "Objecttype": "VELOSTATION", "Type_velo": "ENKELZIJDIG", "Ligging": "VOETPAD", "Straatnaam": "Helderstraat", "Huisnummer": "59", "Aanvulling": "", "District": "Berchem", "Postcode": "2600", "Objectcode": "VE_0000256", "Gebruik": "IN_GEBRUIK", "Aantal_plaatsen": 27, "Naam": "256 Zillebeek" }, "geometry": { "type": "Point", "coordinates": [ 4.442223626220209, 51.195453971330032 ] } },
{ "type": "Feature", "properties": { "OBJECTID": 8611, "Objecttype": "VELOSTATION", "Type_velo": "ENKELZIJDIG", "Ligging": "PARKEERZONE", "Straatnaam": "Hofstadestraat", "Huisnummer": "", "Aanvulling": "hoek Klerkenstraat", "District": "Berchem", "Postcode": "2600", "Objectcode": "VE_0000257", "Gebruik": "IN_GEBRUIK", "Aantal_plaatsen": 36, "Naam": "257 Hofstade" }, "geometry": { "type": "Point", "coordinates": [ 4.448781526446441, 51.192336360690383 ] } },
{ "type": "Feature", "properties": { "OBJECTID": 8612, "Objecttype": "VELOSTATION", "Type_velo": "ENKELZIJDIG", "Ligging": "GROENZONE", "Straatnaam": "Lodewijk Van Berckenlaan", "Huisnummer": "127", "Aanvulling": "to 127", "District": "Berchem", "Postcode": "2600", "Objectcode": "VE_0000258", "Gebruik": "IN_GEBRUIK", "Aantal_plaatsen": 30, "Naam": "258 Hof van Nauwelaerts" }, "geometry": { "type": "Point", "coordinates": [ 4.443914778233296, 51.19753895417675 ] } },
{ "type": "Feature", "properties": { "OBJECTID": 8613, "Objecttype": "VELOSTATION", "Type_velo": "DUBBELZIJDIG", "Ligging": "GROENZONE", "Straatnaam": "Posthofbrug", "Huisnummer": "", "Aanvulling": "thv Arbeidersstraat", "District": "Berchem", "Postcode": "2600", "Objectcode": "VE_0000259", "Gebruik": "IN_GEBRUIK", "Aantal_plaatsen": 36, "Naam": "259 Posthofbrug" }, "geometry": { "type": "Point", "coordinates": [ 4.437007847700394, 51.193361719302537 ] } },
{ "type": "Feature", "properties": { "OBJECTID": 8614, "Objecttype": "VELOSTATION", "Type_velo": "ENKELZIJDIG", "Ligging": "GROENZONE", "Straatnaam": "Hof Ter Schriecklaan", "Huisnummer": "1", "Aanvulling": "", "District": "Berchem", "Postcode": "2600", "Objectcode": "VE_0000260", "Gebruik": "IN_GEBRUIK", "Aantal_plaatsen": 27, "Naam": "260 Ter Schriek" }, "geometry": { "type": "Point", "coordinates": [ 4.421675239625535, 51.189720047895314 ] } },
{ "type": "Feature", "properties": { "OBJECTID": 8615, "Objecttype": "VELOSTATION", "Type_velo": "DUBBELZIJDIG", "Ligging": "GROENZONE", "Straatnaam": "Henri Prostlaan", "Huisnummer": "5", "Aanvulling": "eind vd keerlus", "District": "Berchem", "Postcode": "2600", "Objectcode": "VE_0000261", "Gebruik": "IN_GEBRUIK", "Aantal_plaatsen": 36, "Naam": "261 Brilschans" }, "geometry": { "type": "Point", "coordinates": [ 4.42955485488763, 51.188700635964032 ] } },
{ "type": "Feature", "properties": { "OBJECTID": 8616, "Objecttype": "VELOSTATION", "Type_velo": "DUBBELZIJDIG", "Ligging": "GROENZONE", "Straatnaam": "Rooi", "Huisnummer": "", "Aanvulling": "thv Achtersteveld", "District": "Berchem", "Postcode": "2600", "Objectcode": "VE_0000262", "Gebruik": "IN_GEBRUIK", "Aantal_plaatsen": 36, "Naam": "262 Hoogveld" }, "geometry": { "type": "Point", "coordinates": [ 4.435505144240652, 51.189313287605664 ] } },
{ "type": "Feature", "properties": { "OBJECTID": 8617, "Objecttype": "VELOSTATION", "Type_velo": "ENKELZIJDIG", "Ligging": "MIDDENBERM", "Straatnaam": "Fruithoflaan", "Huisnummer": "85", "Aanvulling": "to 85 middenberm", "District": "Berchem", "Postcode": "2600", "Objectcode": "VE_0000263", "Gebruik": "IN_GEBRUIK", "Aantal_plaatsen": 36, "Naam": "263 Fruithoflaan 2" }, "geometry": { "type": "Point", "coordinates": [ 4.440859642497048, 51.184453393870108 ] } },
{ "type": "Feature", "properties": { "OBJECTID": 8618, "Objecttype": "VELOSTATION", "Type_velo": "DUBBELZIJDIG", "Ligging": "PLEIN", "Straatnaam": "Filip Williotstraat", "Huisnummer": "11", "Aanvulling": "", "District": "Berchem", "Postcode": "2600", "Objectcode": "VE_0000264", "Gebruik": "IN_GEBRUIK", "Aantal_plaatsen": 36, "Naam": "264 Filip Williotstraat" }, "geometry": { "type": "Point", "coordinates": [ 4.435161038254458, 51.187611439533846 ] } },
{ "type": "Feature", "properties": { "OBJECTID": 8619, "Objecttype": "VELOSTATION", "Type_velo": "DUBBELZIJDIG", "Ligging": "VOETPAD", "Straatnaam": "Pulhoflaan", "Huisnummer": "", "Aanvulling": "thv Lappersbrug", "District": "Berchem", "Postcode": "2600", "Objectcode": "VE_0000265", "Gebruik": "IN_GEBRUIK", "Aantal_plaatsen": 30, "Naam": "265 Pulhof" }, "geometry": { "type": "Point", "coordinates": [ 4.432000569101445, 51.185158272033327 ] } },
{ "type": "Feature", "properties": { "OBJECTID": 8620, "Objecttype": "VELOSTATION", "Type_velo": "ENKELZIJDIG", "Ligging": "MIDDENBERM", "Straatnaam": "Fruithoflaan", "Huisnummer": "3-5", "Aanvulling": "to 3-5", "District": "Berchem", "Postcode": "2600", "Objectcode": "VE_0000266", "Gebruik": "IN_GEBRUIK", "Aantal_plaatsen": 36, "Naam": "266 Fruithoflaan 1" }, "geometry": { "type": "Point", "coordinates": [ 4.4348175744934, 51.180814407725073 ] } },
{ "type": "Feature", "properties": { "OBJECTID": 8621, "Objecttype": "VELOSTATION", "Type_velo": "DUBBELZIJDIG", "Ligging": "GROENZONE", "Straatnaam": "Prins Leopoldlaan", "Huisnummer": "36", "Aanvulling": "to 36 od hoek", "District": "Berchem", "Postcode": "2600", "Objectcode": "VE_0000267", "Gebruik": "IN_GEBRUIK", "Aantal_plaatsen": 30, "Naam": "267 Leopold" }, "geometry": { "type": "Point", "coordinates": [ 4.423351702706049, 51.185817678542932 ] } },
{ "type": "Feature", "properties": { "OBJECTID": 8622, "Objecttype": "VELOSTATION", "Type_velo": "ENKELZIJDIG", "Ligging": "VOETPAD", "Straatnaam": "Lindendreef", "Huisnummer": "", "Aanvulling": "", "District": "Antwerpen", "Postcode": "2020", "Objectcode": "VE_0000268", "Gebruik": "IN_GEBRUIK", "Aantal_plaatsen": 36, "Naam": "268 ZNA Middelheim" }, "geometry": { "type": "Point", "coordinates": [ 4.418483964849578, 51.183048565053312 ] } },
{ "type": "Feature", "properties": { "OBJECTID": 8623, "Objecttype": "VELOSTATION", "Type_velo": "DUBBELZIJDIG", "Ligging": "GROENZONE", "Straatnaam": "Troyentenhoflaan", "Huisnummer": "120-122", "Aanvulling": "", "District": "Berchem", "Postcode": "2600", "Objectcode": "VE_0000269", "Gebruik": "IN_GEBRUIK", "Aantal_plaatsen": 30, "Naam": "269 Middelheim" }, "geometry": { "type": "Point", "coordinates": [ 4.424378668157033, 51.183096811211492 ] } },
{ "type": "Feature", "properties": { "OBJECTID": 8624, "Objecttype": "VELOSTATION", "Type_velo": "ENKELZIJDIG", "Ligging": "GROENZONE", "Straatnaam": "Eglantierlaan", "Huisnummer": "1", "Aanvulling": "", "District": "Antwerpen", "Postcode": "2020", "Objectcode": "VE_0000270", "Gebruik": "IN_GEBRUIK", "Aantal_plaatsen": 36, "Naam": "270 Dikke Mee" }, "geometry": { "type": "Point", "coordinates": [ 4.404100238977717, 51.186385043475525 ] } },
{ "type": "Feature", "properties": { "OBJECTID": 8625, "Objecttype": "VELOSTATION", "Type_velo": "DUBBELZIJDIG", "Ligging": "GROENZONE", "Straatnaam": "Beukenlaan", "Huisnummer": "24", "Aanvulling": "to 24 hoek Middelheimlaan", "District": "Antwerpen", "Postcode": "2020", "Objectcode": "VE_0000271", "Gebruik": "IN_GEBRUIK", "Aantal_plaatsen": 36, "Naam": "271 Middelheim Museum" }, "geometry": { "type": "Point", "coordinates": [ 4.409047472840031, 51.180754944454478 ] } },
{ "type": "Feature", "properties": { "OBJECTID": 8626, "Objecttype": "VELOSTATION", "Type_velo": "ENKELZIJDIG", "Ligging": "MIDDENBERM", "Straatnaam": "Groenenborgerlaan", "Huisnummer": "199", "Aanvulling": "", "District": "Antwerpen", "Postcode": "2020", "Objectcode": "VE_0000272", "Gebruik": "IN_GEBRUIK", "Aantal_plaatsen": 30, "Naam": "272 Groenenborger" }, "geometry": { "type": "Point", "coordinates": [ 4.421647208600417, 51.177818585796118 ] } },
{ "type": "Feature", "properties": { "OBJECTID": 8627, "Objecttype": "VELOSTATION", "Type_velo": "ENKELZIJDIG", "Ligging": "GROENZONE", "Straatnaam": "Oosterveldlaan", "Huisnummer": "8", "Aanvulling": "to 8", "District": "Wilrijk", "Postcode": "2610", "Objectcode": "VE_0000273", "Gebruik": "IN_GEBRUIK", "Aantal_plaatsen": 36, "Naam": "273 Campus Groenenborger" }, "geometry": { "type": "Point", "coordinates": [ 4.412985731538168, 51.175793688825841 ] } },
{ "type": "Feature", "properties": { "OBJECTID": 8628, "Objecttype": "VELOSTATION", "Type_velo": "DUBBELZIJDIG", "Ligging": "PLEIN", "Straatnaam": "Bist", "Huisnummer": "", "Aanvulling": "", "District": "Wilrijk", "Postcode": "2610", "Objectcode": "VE_0000274", "Gebruik": "IN_GEBRUIK", "Aantal_plaatsen": 30, "Naam": "274 De Bist" }, "geometry": { "type": "Point", "coordinates": [ 4.394708022261722, 51.170457738987459 ] } },
{ "type": "Feature", "properties": { "OBJECTID": 8629, "Objecttype": "VELOSTATION", "Type_velo": "DUBBELZIJDIG", "Ligging": "VOETPAD", "Straatnaam": "Groenenborgerlaan", "Huisnummer": "17", "Aanvulling": "", "District": "Wilrijk", "Postcode": "2610", "Objectcode": "VE_0000275", "Gebruik": "IN_GEBRUIK", "Aantal_plaatsen": 36, "Naam": "275 Sneeuwbes" }, "geometry": { "type": "Point", "coordinates": [ 4.403293278062089, 51.174388972230943 ] } },
{ "type": "Feature", "properties": { "OBJECTID": 8630, "Objecttype": "VELOSTATION", "Type_velo": "DUBBELZIJDIG", "Ligging": "PLEIN", "Straatnaam": "Kruishofstraat", "Huisnummer": "140", "Aanvulling": "to 140", "District": "Wilrijk", "Postcode": "2610", "Objectcode": "VE_0000276", "Gebruik": "IN_GEBRUIK", "Aantal_plaatsen": 36, "Naam": "276 Corbusier" }, "geometry": { "type": "Point", "coordinates": [ 4.394042661616102, 51.183564387453188 ] } },
{ "type": "Feature", "properties": { "OBJECTID": 8631, "Objecttype": "VELOSTATION", "Type_velo": "ENKELZIJDIG", "Ligging": "VOETPAD", "Straatnaam": "Ahornenlaan", "Huisnummer": "1", "Aanvulling": "", "District": "Wilrijk", "Postcode": "2610", "Objectcode": "VE_0000277", "Gebruik": "IN_GEBRUIK", "Aantal_plaatsen": 36, "Naam": "277 Ahornen" }, "geometry": { "type": "Point", "coordinates": [ 4.399778729422632, 51.17705891222807 ] } },
{ "type": "Feature", "properties": { "OBJECTID": 8632, "Objecttype": "VELOSTATION", "Type_velo": "DUBBELZIJDIG", "Ligging": "GROENZONE", "Straatnaam": "Oversneslaan", "Huisnummer": "54", "Aanvulling": "", "District": "Wilrijk", "Postcode": "2610", "Objectcode": "VE_0000278", "Gebruik": "IN_GEBRUIK", "Aantal_plaatsen": 36, "Naam": "278 Oversnes" }, "geometry": { "type": "Point", "coordinates": [ 4.393907206570622, 51.165372068344105 ] } },
{ "type": "Feature", "properties": { "OBJECTID": 8633, "Objecttype": "VELOSTATION", "Type_velo": "DUBBELZIJDIG", "Ligging": "PLEIN", "Straatnaam": "Doornstraat", "Huisnummer": "2", "Aanvulling": "naast 2", "District": "Wilrijk", "Postcode": "2610", "Objectcode": "VE_0000279", "Gebruik": "IN_GEBRUIK", "Aantal_plaatsen": 36, "Naam": "279 Ieperman" }, "geometry": { "type": "Point", "coordinates": [ 4.394482508769841, 51.168164628780346 ] } },
{ "type": "Feature", "properties": { "OBJECTID": 8634, "Objecttype": "VELOSTATION", "Type_velo": "DUBBELZIJDIG", "Ligging": "GROENZONE", "Straatnaam": "Bosheidelaan", "Huisnummer": "", "Aanvulling": "hoek Rooiboslaan", "District": "Wilrijk", "Postcode": "2610", "Objectcode": "VE_0000280", "Gebruik": "IN_GEBRUIK", "Aantal_plaatsen": 36, "Naam": "280 Marmotteke" }, "geometry": { "type": "Point", "coordinates": [ 4.382395854260454, 51.176716190078892 ] } },
{ "type": "Feature", "properties": { "OBJECTID": 8635, "Objecttype": "VELOSTATION", "Type_velo": "DUBBELZIJDIG", "Ligging": "GROENZONE", "Straatnaam": "Hof Van Tichelen", "Huisnummer": "30", "Aanvulling": "naast 30", "District": "Antwerpen", "Postcode": "2020", "Objectcode": "VE_0000281", "Gebruik": "IN_GEBRUIK", "Aantal_plaatsen": 36, "Naam": "281 Hof van Tichelen" }, "geometry": { "type": "Point", "coordinates": [ 4.385364527729123, 51.182461088947186 ] } },
{ "type": "Feature", "properties": { "OBJECTID": 8636, "Objecttype": "VELOSTATION", "Type_velo": "DUBBELZIJDIG", "Ligging": "VOETPAD", "Straatnaam": "Letterkundestraat", "Huisnummer": "59-63", "Aanvulling": "basis school de letter", "District": "Wilrijk", "Postcode": "2610", "Objectcode": "VE_0000282", "Gebruik": "IN_GEBRUIK", "Aantal_plaatsen": 36, "Naam": "282 De Letter" }, "geometry": { "type": "Point", "coordinates": [ 4.381039269885084, 51.180277782695811 ] } },
{ "type": "Feature", "properties": { "OBJECTID": 8637, "Objecttype": "VELOSTATION", "Type_velo": "DUBBELZIJDIG", "Ligging": "PLEIN", "Straatnaam": "Hollebeekstraat", "Huisnummer": "25-27", "Aanvulling": "to 25-27", "District": "Hoboken", "Postcode": "2660", "Objectcode": "VE_0000283", "Gebruik": "IN_GEBRUIK", "Aantal_plaatsen": 36, "Naam": "283 Hollebeek" }, "geometry": { "type": "Point", "coordinates": [ 4.37194757667894, 51.181679114521963 ] } },
{ "type": "Feature", "properties": { "OBJECTID": 8638, "Objecttype": "VELOSTATION", "Type_velo": "DUBBELZIJDIG", "Ligging": "VOETPAD", "Straatnaam": "Steynstraat", "Huisnummer": "297-299", "Aanvulling": "", "District": "Hoboken", "Postcode": "2660", "Objectcode": "VE_0000284", "Gebruik": "IN_GEBRUIK", "Aantal_plaatsen": 36, "Naam": "284 Steynstraat" }, "geometry": { "type": "Point", "coordinates": [ 4.364190696009018, 51.183279807840655 ] } },
{ "type": "Feature", "properties": { "OBJECTID": 8639, "Objecttype": "VELOSTATION", "Type_velo": "ENKELZIJDIG", "Ligging": "PLEIN", "Straatnaam": "Berkenrodelei", "Huisnummer": "150", "Aanvulling": "naast 150", "District": "Hoboken", "Postcode": "2660", "Objectcode": "VE_0000286", "Gebruik": "IN_GEBRUIK", "Aantal_plaatsen": 36, "Naam": "286 Station Hoboken/Polderstad" }, "geometry": { "type": "Point", "coordinates": [ 4.348261868822957, 51.182588022813142 ] } },
{ "type": "Feature", "properties": { "OBJECTID": 8640, "Objecttype": "VELOSTATION", "Type_velo": "DUBBELZIJDIG", "Ligging": "VOETPAD", "Straatnaam": "Berkenrodelei", "Huisnummer": "2", "Aanvulling": "", "District": "Hoboken", "Postcode": "2660", "Objectcode": "VE_0000287", "Gebruik": "IN_GEBRUIK", "Aantal_plaatsen": 36, "Naam": "287 Kioskplaats/Centrum" }, "geometry": { "type": "Point", "coordinates": [ 4.350064270706519, 51.177777143223359 ] } },
{ "type": "Feature", "properties": { "OBJECTID": 8641, "Objecttype": "VELOSTATION", "Type_velo": "DUBBELZIJDIG", "Ligging": "GROENZONE", "Straatnaam": "Draaiboomstraat", "Huisnummer": "44", "Aanvulling": "to 44", "District": "Hoboken", "Postcode": "2660", "Objectcode": "VE_0000288", "Gebruik": "IN_GEBRUIK", "Aantal_plaatsen": 36, "Naam": "288 Draaiboom" }, "geometry": { "type": "Point", "coordinates": [ 4.359829828272821, 51.177299234352432 ] } },
{ "type": "Feature", "properties": { "OBJECTID": 8642, "Objecttype": "VELOSTATION", "Type_velo": "DUBBELZIJDIG", "Ligging": "VOETPAD", "Straatnaam": "Walstraat", "Huisnummer": "5-7", "Aanvulling": "to 5-7", "District": "Hoboken", "Postcode": "2660", "Objectcode": "VE_0000289", "Gebruik": "IN_GEBRUIK", "Aantal_plaatsen": 36, "Naam": "289 Broydenborgpark" }, "geometry": { "type": "Point", "coordinates": [ 4.352164389895754, 51.173522944120897 ] } },
{ "type": "Feature", "properties": { "OBJECTID": 8643, "Objecttype": "VELOSTATION", "Type_velo": "DUBBELZIJDIG", "Ligging": "GROENZONE", "Straatnaam": "Sint-Bernardsesteenweg", "Huisnummer": "886", "Aanvulling": "to 886", "District": "Hoboken", "Postcode": "2660", "Objectcode": "VE_0000290", "Gebruik": "IN_GEBRUIK", "Aantal_plaatsen": 36, "Naam": "290 Coöperatielaan" }, "geometry": { "type": "Point", "coordinates": [ 4.367792938569553, 51.176232782443954 ] } },
{ "type": "Feature", "properties": { "OBJECTID": 8644, "Objecttype": "VELOSTATION", "Type_velo": "DUBBELZIJDIG", "Ligging": "GROENZONE", "Straatnaam": "Maurits Sabbelaan", "Huisnummer": "16-18", "Aanvulling": "to 16-18", "District": "Antwerpen", "Postcode": "2020", "Objectcode": "VE_0000291", "Gebruik": "IN_GEBRUIK", "Aantal_plaatsen": 36, "Naam": "291 Braem blokken" }, "geometry": { "type": "Point", "coordinates": [ 4.372675551394925, 51.188556242681756 ] } },
{ "type": "Feature", "properties": { "OBJECTID": 8645, "Objecttype": "VELOSTATION", "Type_velo": "DUBBELZIJDIG", "Ligging": "GROENZONE", "Straatnaam": "Jacob Le Mairestraat", "Huisnummer": "8", "Aanvulling": "naast 8 aan keerlus", "District": "Antwerpen", "Postcode": "2020", "Objectcode": "VE_0000292", "Gebruik": "IN_GEBRUIK", "Aantal_plaatsen": 36, "Naam": "292 Kielpark" }, "geometry": { "type": "Point", "coordinates": [ 4.380984996084583, 51.190746147246678 ] } },
{ "type": "Feature", "properties": { "OBJECTID": 8646, "Objecttype": "VELOSTATION", "Type_velo": "ENKELZIJDIG", "Ligging": "PLEIN", "Straatnaam": "Pol De Montstraat", "Huisnummer": "10", "Aanvulling": "to 10 oh plein", "District": "Antwerpen", "Postcode": "2020", "Objectcode": "VE_0000293", "Gebruik": "IN_GEBRUIK", "Aantal_plaatsen": 36, "Naam": "293 Edgard Castelein" }, "geometry": { "type": "Point", "coordinates": [ 4.390918301568982, 51.18844379404424 ] } },
{ "type": "Feature", "properties": { "OBJECTID": 8647, "Objecttype": "VELOSTATION", "Type_velo": "ENKELZIJDIG", "Ligging": "PLEIN", "Straatnaam": "Valerius De Saedeleerstraat", "Huisnummer": "2", "Aanvulling": "to 2", "District": "Antwerpen", "Postcode": "2020", "Objectcode": "VE_0000294", "Gebruik": "IN_GEBRUIK", "Aantal_plaatsen": 36, "Naam": "294 Den Tir" }, "geometry": { "type": "Point", "coordinates": [ 4.376830700394413, 51.191123087108011 ] } },
{ "type": "Feature", "properties": { "OBJECTID": 8648, "Objecttype": "VELOSTATION", "Type_velo": "ENKELZIJDIG", "Ligging": "GROENZONE", "Straatnaam": "Emiel Vloorsstraat", "Huisnummer": "", "Aanvulling": "hoek August Leysweg", "District": "Antwerpen", "Postcode": "2020", "Objectcode": "VE_0000295", "Gebruik": "IN_GEBRUIK", "Aantal_plaatsen": 36, "Naam": "295 Sporthal Kiel" }, "geometry": { "type": "Point", "coordinates": [ 4.379331225994903, 51.194299903422454 ] } },
{ "type": "Feature", "properties": { "OBJECTID": 8649, "Objecttype": "VELOSTATION", "Type_velo": "DUBBELZIJDIG", "Ligging": "GROENZONE", "Straatnaam": "Eric Sasselaan", "Huisnummer": "69", "Aanvulling": "to 69", "District": "Antwerpen", "Postcode": "2020", "Objectcode": "VE_0000296", "Gebruik": "IN_GEBRUIK", "Aantal_plaatsen": 30, "Naam": "296 Mastvest" }, "geometry": { "type": "Point", "coordinates": [ 4.393069499512868, 51.194089192377547 ] } },
{ "type": "Feature", "properties": { "OBJECTID": 8650, "Objecttype": "VELOSTATION", "Type_velo": "DUBBELZIJDIG", "Ligging": "GROENZONE", "Straatnaam": "Jan De Voslei", "Huisnummer": "", "Aanvulling": "thv C Huysmanslaan", "District": "Antwerpen", "Postcode": "2020", "Objectcode": "VE_0000297", "Gebruik": "IN_GEBRUIK", "Aantal_plaatsen": 36, "Naam": "297 Tentoonstellingswijk" }, "geometry": { "type": "Point", "coordinates": [ 4.388904351063254, 51.190676438734428 ] } },
{ "type": "Feature", "properties": { "OBJECTID": 8651, "Objecttype": "VELOSTATION", "Type_velo": "ENKELZIJDIG", "Ligging": "VOETPAD", "Straatnaam": "Valkstraat", "Huisnummer": "", "Aanvulling": "thv Gaston Fabrelaan", "District": "Wilrijk", "Postcode": "2610", "Objectcode": "VE_0000298", "Gebruik": "IN_GEBRUIK", "Aantal_plaatsen": 27, "Naam": "298 Koornbloem" }, "geometry": { "type": "Point", "coordinates": [ 4.38247802690545, 51.171872136719152 ] } },
{ "type": "Feature", "properties": { "OBJECTID": 8652, "Objecttype": "VELOSTATION", "Type_velo": "ENKELZIJDIG", "Ligging": "GROENZONE", "Straatnaam": "Camille Huysmanslaan", "Huisnummer": "", "Aanvulling": "thv J V Rijswijcklaan", "District": "Antwerpen", "Postcode": "2020", "Objectcode": "VE_0000299", "Gebruik": "IN_GEBRUIK", "Aantal_plaatsen": 36, "Naam": "299 Antwerp Expo" }, "geometry": { "type": "Point", "coordinates": [ 4.398055251977524, 51.191957745957438 ] } },
{ "type": "Feature", "properties": { "OBJECTID": 8653, "Objecttype": "VELOSTATION", "Type_velo": "DUBBELZIJDIG", "Ligging": "GROENZONE", "Straatnaam": "Vogelzanglaan", "Huisnummer": "", "Aanvulling": "thv voetbalveld", "District": "Antwerpen", "Postcode": "2020", "Objectcode": "VE_0000300", "Gebruik": "IN_GEBRUIK", "Aantal_plaatsen": 36, "Naam": "300 Wilrijksepleinen" }, "geometry": { "type": "Point", "coordinates": [ 4.397305105886718, 51.189353382661068 ] } },
{ "type": "Feature", "properties": { "OBJECTID": 8654, "Objecttype": "VELOSTATION", "Type_velo": "DUBBELZIJDIG", "Ligging": "PLEIN", "Straatnaam": "Luchthavenlei", "Huisnummer": "1", "Aanvulling": "Op de parking van de luchthaven", "District": "Deurne", "Postcode": "2100", "Objectcode": "VE_0000301", "Gebruik": "IN_GEBRUIK", "Aantal_plaatsen": 30, "Naam": "301 Luchthaven" }, "geometry": { "type": "Point", "coordinates": [ 4.450397329370111, 51.188673105446057 ] } },
{ "type": "Feature", "properties": { "OBJECTID": 8655, "Objecttype": "VELOSTATION", "Type_velo": "DUBBELZIJDIG", "Ligging": "PLEIN", "Straatnaam": "Rozenkransplein", "Huisnummer": "11", "Aanvulling": "to 11 oh plein", "District": "Wilrijk", "Postcode": "2610", "Objectcode": "VE_0000302", "Gebruik": "IN_GEBRUIK", "Aantal_plaatsen": 30, "Naam": "302 Rozenkrans" }, "geometry": { "type": "Point", "coordinates": [ 4.390452477821424, 51.179099874628157 ] } },
{ "type": "Feature", "properties": { "OBJECTID": 8656, "Objecttype": "VELOSTATION", "Type_velo": "ENKELZIJDIG", "Ligging": "VOETPAD", "Straatnaam": "Commandant Weynsstraat", "Huisnummer": "", "Aanvulling": "", "District": "Hoboken", "Postcode": "2660", "Objectcode": "VE_0000285", "Gebruik": "IN_GEBRUIK", "Aantal_plaatsen": 27, "Naam": "285 Hoge beuken" }, "geometry": { "type": "Point", "coordinates": [ 4.352864657291591, 51.183870755530613 ] } },
{ "type": "Feature", "properties": { "OBJECTID": 8657, "Objecttype": "VELOSTATION", "Type_velo": "ENKELZIJDIG", "Ligging": "VOETPAD", "Straatnaam": "Mexicostraat", "Huisnummer": "thv 37", "Aanvulling": "nieuw havenhuis", "District": "Antwerpen", "Postcode": "2030", "Objectcode": "VE_0000221", "Gebruik": "IN_GEBRUIK", "Aantal_plaatsen": 36, "Naam": "221 Havenhuis" }, "geometry": { "type": "Point", "coordinates": [ 4.408410787870802, 51.240192692787808 ] } },
{ "type": "Feature", "properties": { "OBJECTID": 8658, "Objecttype": "VELOSTATION", "Type_velo": "ENKELZIJDIG", "Ligging": "PARKEERZONE", "Straatnaam": "Kambalastraat", "Huisnummer": "2", "Aanvulling": "", "District": "Antwerpen", "Postcode": "2030", "Objectcode": "VE_0000303", "Gebruik": "IN_GEBRUIK", "Aantal_plaatsen": 36, "Naam": "303 Kambala" }, "geometry": { "type": "Point", "coordinates": [ 4.41023681209175, 51.237966750106281 ] } },
{ "type": "Feature", "properties": { "OBJECTID": 8659, "Objecttype": "VELOSTATION", "Type_velo": "DUBBELZIJDIG", "Ligging": "GROENZONE", "Straatnaam": "Campiniastraat", "Huisnummer": "50", "Aanvulling": "", "District": "Merksem", "Postcode": "2170", "Objectcode": "VE_0000304", "Gebruik": "IN_GEBRUIK", "Aantal_plaatsen": 36, "Naam": "304 Campinia" }, "geometry": { "type": "Point", "coordinates": [ 4.43409171076888, 51.240114003479803 ] } },
{ "type": "Feature", "properties": { "OBJECTID": 8660, "Objecttype": "VELOSTATION", "Type_velo": "DUBBELZIJDIG", "Ligging": "VOETGANGERSZONE", "Straatnaam": "Van Kerckhovenstraat", "Huisnummer": "74", "Aanvulling": "", "District": "Antwerpen", "Postcode": "2060", "Objectcode": "VE_0000156", "Gebruik": "IN_GEBRUIK", "Aantal_plaatsen": 30, "Naam": "156 Gasstraat" }, "geometry": { "type": "Point", "coordinates": [ 4.425576358060522, 51.226031395607571 ] } },
{ "type": "Feature", "properties": { "OBJECTID": 8661, "Objecttype": "VELOSTATION", "Type_velo": "DUBBELZIJDIG", "Ligging": "PLEIN", "Straatnaam": "Lange Leemstraat", "Huisnummer": "", "Aanvulling": "", "District": "Antwerpen", "Postcode": "2018", "Objectcode": "VE_0000161", "Gebruik": "IN_GEBRUIK", "Aantal_plaatsen": 36, "Naam": "161 Hospitaalplein" }, "geometry": { "type": "Point", "coordinates": [ 4.425508709683888, 51.203669170273848 ] } },
{ "type": "Feature", "properties": { "OBJECTID": 8662, "Objecttype": "VELOSTATION", "Type_velo": "DUBBELZIJDIG", "Ligging": "GROENZONE", "Straatnaam": "Ter Nieuwerbrugge", "Huisnummer": "3", "Aanvulling": "", "District": "Berchem", "Postcode": "2600", "Objectcode": "VE_0000305", "Gebruik": "IN_GEBRUIK", "Aantal_plaatsen": 36, "Naam": "305 Ter Nieuwerbrugge" }, "geometry": { "type": "Point", "coordinates": [ 4.443560894837977, 51.191256610344517 ] } },
{ "type": "Feature", "properties": { "OBJECTID": 8663, "Objecttype": "VELOSTATION", "Type_velo": "DUBBELZIJDIG", "Ligging": "GROENZONE", "Straatnaam": "Baron Sadoinestraat", "Huisnummer": "26", "Aanvulling": "", "District": "Hoboken", "Postcode": "2660", "Objectcode": "VE_0000307", "Gebruik": "IN_GEBRUIK", "Aantal_plaatsen": 36, "Naam": "307 Baron Sadoin" }, "geometry": { "type": "Point", "coordinates": [ 4.338140972068489, 51.172063225935318 ] } },
{ "type": "Feature", "properties": { "OBJECTID": 8664, "Objecttype": "VELOSTATION", "Type_velo": "ENKELZIJDIG", "Ligging": "PLEIN", "Straatnaam": "Majoor Maelfaitplein", "Huisnummer": "15", "Aanvulling": "langsheen het plein", "District": "Hoboken", "Postcode": "2660", "Objectcode": "VE_0000308", "Gebruik": "IN_GEBRUIK", "Aantal_plaatsen": 36, "Naam": "308 KDG Campus Hoboken" }, "geometry": { "type": "Point", "coordinates": [ 4.367237478356431, 51.171120873111576 ] } },
{ "type": "Feature", "properties": { "OBJECTID": 8665, "Objecttype": "VELOSTATION", "Type_velo": "DUBBELZIJDIG", "Ligging": "GROENZONE", "Straatnaam": "Paul Henri Spaaklaan", "Huisnummer": "2", "Aanvulling": "", "District": "Hoboken", "Postcode": "2660", "Objectcode": "VE_0000309", "Gebruik": "IN_GEBRUIK", "Aantal_plaatsen": 36, "Naam": "309 De Torekens" }, "geometry": { "type": "Point", "coordinates": [ 4.349510508084295, 51.170904878793962 ] } },
{ "type": "Feature", "properties": { "OBJECTID": 8666, "Objecttype": "VELOSTATION", "Type_velo": "DUBBELZIJDIG", "Ligging": "PLEIN", "Straatnaam": "Krijgsbaan", "Huisnummer": "20", "Aanvulling": "", "District": "Hoboken", "Postcode": "2660", "Objectcode": "VE_0000310", "Gebruik": "IN_GEBRUIK", "Aantal_plaatsen": 36, "Naam": "310 Sporthal Sorghvliedt" }, "geometry": { "type": "Point", "coordinates": [ 4.353577438596021, 51.167194244981189 ] } },
{ "type": "Feature", "properties": { "OBJECTID": 8667, "Objecttype": "VELOSTATION", "Type_velo": "ENKELZIJDIG", "Ligging": "GROENZONE", "Straatnaam": "Cockerillplaats", "Huisnummer": "12-14", "Aanvulling": "to 12-14", "District": "Hoboken", "Postcode": "2660", "Objectcode": "VE_0000311", "Gebruik": "IN_GEBRUIK", "Aantal_plaatsen": 36, "Naam": "311 Cockerillhof" }, "geometry": { "type": "Point", "coordinates": [ 4.344184936747686, 51.174756279533121 ] } },
{ "type": "Feature", "properties": { "OBJECTID": 8668, "Objecttype": "VELOSTATION", "Type_velo": "ENKELZIJDIG", "Ligging": "GROENZONE", "Straatnaam": "Graspolderlaan", "Huisnummer": "15-21", "Aanvulling": "", "District": "Hoboken", "Postcode": "2660", "Objectcode": "VE_0000312", "Gebruik": "IN_GEBRUIK", "Aantal_plaatsen": 36, "Naam": "312 Graspolder" }, "geometry": { "type": "Point", "coordinates": [ 4.342373183221373, 51.184790128253375 ] } },
{ "type": "Feature", "properties": { "OBJECTID": 8669, "Objecttype": "VELOSTATION", "Type_velo": "DUBBELZIJDIG", "Ligging": "MIDDENBERM", "Straatnaam": "Sint Bernaardsestwg", "Huisnummer": "847", "Aanvulling": "", "District": "Hoboken", "Postcode": "2660", "Objectcode": "VE_0000314", "Gebruik": "IN_GEBRUIK", "Aantal_plaatsen": 36, "Naam": "314 Schoonselhof" }, "geometry": { "type": "Point", "coordinates": [ 4.363352464250761, 51.169108947047576 ] } },
{ "type": "Feature", "properties": { "OBJECTID": 8670, "Objecttype": "VELOSTATION", "Type_velo": "DUBBELZIJDIG", "Ligging": "GROENZONE", "Straatnaam": "Den Brem", "Huisnummer": "91", "Aanvulling": "", "District": "Wilrijk", "Postcode": "2610", "Objectcode": "VE_0000320", "Gebruik": "IN_GEBRUIK", "Aantal_plaatsen": 36, "Naam": "320 Den Brem" }, "geometry": { "type": "Point", "coordinates": [ 4.375512093805261, 51.174025995627922 ] } },
{ "type": "Feature", "properties": { "OBJECTID": 8671, "Objecttype": "VELOSTATION", "Type_velo": "DUBBELZIJDIG", "Ligging": "GROENZONE", "Straatnaam": "Galgenweellaan", "Huisnummer": "70", "Aanvulling": "", "District": "Antwerpen", "Postcode": "2050", "Objectcode": "VE_0000163", "Gebruik": "IN_GEBRUIK", "Aantal_plaatsen": 36, "Naam": "163 Pluvier" }, "geometry": { "type": "Point", "coordinates": [ 4.377895061785249, 51.217475914022934 ] } },
{ "type": "Feature", "properties": { "OBJECTID": 8672, "Objecttype": "VELOSTATION", "Type_velo": "ENKELZIJDIG", "Ligging": "GROENZONE", "Straatnaam": "Ganzemate", "Huisnummer": "", "Aanvulling": "", "District": "Merksem", "Postcode": "2170", "Objectcode": "VE_0000317", "Gebruik": "IN_GEBRUIK", "Aantal_plaatsen": 36, "Naam": "317 Distelhoek" }, "geometry": { "type": "Point", "coordinates": [ 4.432989989750872, 51.252086267536143 ] } },
{ "type": "Feature", "properties": { "OBJECTID": 8673, "Objecttype": "VELOSTATION", "Type_velo": "DUBBELZIJDIG", "Ligging": "GROENZONE", "Straatnaam": "Dokter Emiel Van Dammestraat", "Huisnummer": "28", "Aanvulling": "", "District": "Hoboken", "Postcode": "2660", "Objectcode": "VE_0000316", "Gebruik": "IN_GEBRUIK", "Aantal_plaatsen": 36, "Naam": "316 D. E. Van Damme" }, "geometry": { "type": "Point", "coordinates": [ 4.358109379400886, 51.181785497355975 ] } },
{ "type": "Feature", "properties": { "OBJECTID": 8674, "Objecttype": "VELOSTATION", "Type_velo": "ENKELZIJDIG", "Ligging": "GROENZONE", "Straatnaam": "Malisgoed", "Huisnummer": "7", "Aanvulling": "", "District": "Wilrijk", "Postcode": "2610", "Objectcode": "VE_0000322", "Gebruik": "IN_GEBRUIK", "Aantal_plaatsen": 24, "Naam": "322 Malisgoed" }, "geometry": { "type": "Point", "coordinates": [ 4.381982646531952, 51.166904556480482 ] } },
{ "type": "Feature", "properties": { "OBJECTID": 8675, "Objecttype": "VELOSTATION", "Type_velo": "DUBBELZIJDIG", "Ligging": "PLEIN", "Straatnaam": "Monnikenplein", "Huisnummer": "1", "Aanvulling": "", "District": "Wilrijk", "Postcode": "2610", "Objectcode": "VE_0000321", "Gebruik": "IN_GEBRUIK", "Aantal_plaatsen": 36, "Naam": "321 Monnikenplein" }, "geometry": { "type": "Point", "coordinates": [ 4.430198758858864, 51.175087326827672 ] } },
{ "type": "Feature", "properties": { "OBJECTID": 8676, "Objecttype": "VELOSTATION", "Type_velo": "DUBBELZIJDIG", "Ligging": "VOETPAD", "Straatnaam": "Blancefloerlaan", "Huisnummer": "7272", "Aanvulling": "", "District": "Antwerpen", "Postcode": "2050", "Objectcode": "VE_0000162", "Gebruik": "IN_GEBRUIK", "Aantal_plaatsen": 36, "Naam": "162 Regatta" }, "geometry": { "type": "Point", "coordinates": [ 4.368595728176221, 51.219946593312045 ] } },
{ "type": "Feature", "properties": { "OBJECTID": 8677, "Objecttype": "VELOSTATION", "Type_velo": "DUBBELZIJDIG", "Ligging": "VOETPAD", "Straatnaam": "Paul Vekemanslaan", "Huisnummer": "18", "Aanvulling": "", "District": "Hoboken", "Postcode": "2660", "Objectcode": "VE_0000325", "Gebruik": "IN_GEBRUIK", "Aantal_plaatsen": 30, "Naam": "325 Paul Vekemans" }, "geometry": { "type": "Point", "coordinates": [ 4.359960958821913, 51.174939867272819 ] } },
{ "type": "Feature", "properties": { "OBJECTID": 8678, "Objecttype": "VELOSTATION", "Type_velo": "DUBBELZIJDIG", "Ligging": "GROENZONE", "Straatnaam": null, "Huisnummer": "", "Aanvulling": "", "District": "Hoboken", "Postcode": "2660", "Objectcode": "VE_0000326", "Gebruik": "BUITEN_GEBRUIK", "Aantal_plaatsen": 36, "Naam": "326 Krugerbrug" }, "geometry": { "type": "Point", "coordinates": [ 4.363470828522841, 51.187477355870307 ] } },
{ "type": "Feature", "properties": { "OBJECTID": 8679, "Objecttype": "VELOSTATION", "Type_velo": "DUBBELZIJDIG", "Ligging": "PLEIN", "Straatnaam": "Ridderveld", "Huisnummer": "7", "Aanvulling": "", "District": "Wilrijk", "Postcode": "2610", "Objectcode": "VE_0000327", "Gebruik": "IN_GEBRUIK", "Aantal_plaatsen": 30, "Naam": "327 Ridderveld" }, "geometry": { "type": "Point", "coordinates": [ 4.374804036711379, 51.177214937731122 ] } },
{ "type": "Feature", "properties": { "OBJECTID": 8680, "Objecttype": "VELOSTATION", "Type_velo": "DUBBELZIJDIG", "Ligging": "VOETPAD", "Straatnaam": "Schotensesteenweg", "Huisnummer": "5", "Aanvulling": "", "District": "Deurne", "Postcode": "2100", "Objectcode": "VE_0000328", "Gebruik": "IN_GEBRUIK", "Aantal_plaatsen": 36, "Naam": "328 Oude Terminus" }, "geometry": { "type": "Point", "coordinates": [ 4.47515787709249, 51.219138837972771 ] } },
{ "type": "Feature", "properties": { "OBJECTID": 8681, "Objecttype": "VELOSTATION", "Type_velo": "ENKELZIJDIG", "Ligging": "GROENZONE", "Straatnaam": "Oosterveldlaan", "Huisnummer": "24", "Aanvulling": "", "District": "Wilrijk", "Postcode": "2610", "Objectcode": "VE_0000323", "Gebruik": "IN_GEBRUIK", "Aantal_plaatsen": 36, "Naam": "323 Sint-Augustinus" }, "geometry": { "type": "Point", "coordinates": [ 4.418924213784858, 51.175287867555845 ] } },
{ "type": "Feature", "properties": { "OBJECTID": 8682, "Objecttype": "VELOSTATION", "Type_velo": "DUBBELZIJDIG", "Ligging": "VOETPAD", "Straatnaam": "Dordrechtlaan", "Huisnummer": "2", "Aanvulling": "", "District": "Deurne", "Postcode": "2100", "Objectcode": "VE_0000324", "Gebruik": "IN_GEBRUIK", "Aantal_plaatsen": 24, "Naam": "324 Dordrechtlaan" }, "geometry": { "type": "Point", "coordinates": [ 4.461223467811745, 51.204286112157284 ] } },
{ "type": "Feature", "properties": { "OBJECTID": 8683, "Objecttype": "VELOSTATION", "Type_velo": "ENKELZIJDIG", "Ligging": "PLEIN", "Straatnaam": "Prosper De Witstraat", "Huisnummer": "5", "Aanvulling": "", "District": "Deurne", "Postcode": "2100", "Objectcode": "VE_0000329", "Gebruik": "IN_GEBRUIK", "Aantal_plaatsen": 27, "Naam": "329 Prosper de Wit" }, "geometry": { "type": "Point", "coordinates": [ 4.470623811251938, 51.225977647827186 ] } },
{ "type": "Feature", "properties": { "OBJECTID": 8684, "Objecttype": "VELOSTATION", "Type_velo": "ENKELZIJDIG", "Ligging": "GROENZONE", "Straatnaam": "Meerlenhoflaan", "Huisnummer": "32", "Aanvulling": "ingang park", "District": "Hoboken", "Postcode": "2660", "Objectcode": "VE_0000330", "Gebruik": "IN_GEBRUIK", "Aantal_plaatsen": 36, "Naam": "330 Meerlenhof" }, "geometry": { "type": "Point", "coordinates": [ 4.356261291023441, 51.172250506937502 ] } },
{ "type": "Feature", "properties": { "OBJECTID": 8685, "Objecttype": "VELOSTATION", "Type_velo": "DUBBELZIJDIG", "Ligging": "GROENZONE", "Straatnaam": "Zaatlaan", "Huisnummer": "6", "Aanvulling": "", "District": "Hoboken", "Postcode": "2660", "Objectcode": "VE_0000331", "Gebruik": "IN_GEBRUIK", "Aantal_plaatsen": 36, "Naam": "331 Zaatlaan" }, "geometry": { "type": "Point", "coordinates": [ 4.338665354266375, 51.175581999115195 ] } },
{ "type": "Feature", "properties": { "OBJECTID": 8686, "Objecttype": "VELOSTATION", "Type_velo": "DUBBELZIJDIG", "Ligging": "GROENZONE", "Straatnaam": "Michel Geysemansstraat", "Huisnummer": "10", "Aanvulling": "", "District": "Wilrijk", "Postcode": "2610", "Objectcode": "VE_0000332", "Gebruik": "IN_GEBRUIK", "Aantal_plaatsen": 36, "Naam": "332 Valkstraat" }, "geometry": { "type": "Point", "coordinates": [ 4.38539578586554, 51.167437902785693 ] } },
{ "type": "Feature", "properties": { "OBJECTID": 8687, "Objecttype": "VELOSTATION", "Type_velo": "ENKELZIJDIG", "Ligging": "GROENZONE", "Straatnaam": "Frans Adriaenssensstraat", "Huisnummer": "123", "Aanvulling": "joma basisschool", "District": "Merksem", "Postcode": "2170", "Objectcode": "VE_0000333", "Gebruik": "IN_GEBRUIK", "Aantal_plaatsen": 30, "Naam": "333 Frans Adriaenssens/Joma" }, "geometry": { "type": "Point", "coordinates": [ 4.441781571651894, 51.254460374684804 ] } },
{ "type": "Feature", "properties": { "OBJECTID": 8688, "Objecttype": "VELOSTATION", "Type_velo": "ENKELZIJDIG", "Ligging": "PARKEERZONE", "Straatnaam": "Speelpleinstraat", "Huisnummer": "", "Aanvulling": "", "District": "Merksem", "Postcode": "2170", "Objectcode": "VE_0000335", "Gebruik": "IN_GEBRUIK", "Aantal_plaatsen": 36, "Naam": "335 Speelplein" }, "geometry": { "type": "Point", "coordinates": [ 4.44443365722926, 51.248266717045318 ] } },
{ "type": "Feature", "properties": { "OBJECTID": 8689, "Objecttype": "VELOSTATION", "Type_velo": "ENKELZIJDIG", "Ligging": "PLEIN", "Straatnaam": "Dokter Donnyplein", "Huisnummer": "1", "Aanvulling": "", "District": "Wilrijk", "Postcode": "2610", "Objectcode": "VE_0000340", "Gebruik": "IN_GEBRUIK", "Aantal_plaatsen": 36, "Naam": "340 Dokter Donny" }, "geometry": { "type": "Point", "coordinates": [ 4.404947371420682, 51.168241112901562 ] } },
{ "type": "Feature", "properties": { "OBJECTID": 8690, "Objecttype": "VELOSTATION", "Type_velo": "DUBBELZIJDIG", "Ligging": "GROENZONE", "Straatnaam": "August Van de Wielelei", "Huisnummer": "136", "Aanvulling": "", "District": "Deurne", "Postcode": "2100", "Objectcode": "VE_0000334", "Gebruik": "IN_GEBRUIK", "Aantal_plaatsen": 36, "Naam": "334 Den Haas" }, "geometry": { "type": "Point", "coordinates": [ 4.482930412212984, 51.21981597284222 ] } },
{ "type": "Feature", "properties": { "OBJECTID": 8691, "Objecttype": "VELOSTATION", "Type_velo": "DUBBELZIJDIG", "Ligging": "PARKEERZONE", "Straatnaam": "Sneeuwbeslaan", "Huisnummer": "", "Aanvulling": "Hoek met Laarstraat", "District": "Wilrijk", "Postcode": "2610", "Objectcode": "VE_0000336", "Gebruik": "IN_GEBRUIK", "Aantal_plaatsen": 36, "Naam": "336 Sneeuwbeslaan" }, "geometry": { "type": "Point", "coordinates": [ 4.396094554053631, 51.175644893096866 ] } },
{ "type": "Feature", "properties": { "OBJECTID": 8692, "Objecttype": "VELOSTATION", "Type_velo": "ENKELZIJDIG", "Ligging": "VOETPAD", "Straatnaam": "Verenigde Natieslaan", "Huisnummer": "168", "Aanvulling": "", "District": "Hoboken", "Postcode": "2660", "Objectcode": "VE_0000337", "Gebruik": "IN_GEBRUIK", "Aantal_plaatsen": 24, "Naam": "337 Verenigde Naties" }, "geometry": { "type": "Point", "coordinates": [ 4.353362136408344, 51.163822545488713 ] } },
{ "type": "Feature", "properties": { "OBJECTID": 8693, "Objecttype": "VELOSTATION", "Type_velo": "DUBBELZIJDIG", "Ligging": "VOETPAD", "Straatnaam": "Leo Bosschartlaan", "Huisnummer": "", "Aanvulling": "", "District": "Hoboken", "Postcode": "2660", "Objectcode": "VE_0000339", "Gebruik": "BUITEN_GEBRUIK", "Aantal_plaatsen": 36, "Naam": "339 't Veer" }, "geometry": { "type": "Point", "coordinates": [ 4.332113750055473, 51.17540349121883 ] } },
{ "type": "Feature", "properties": { "OBJECTID": 8694, "Objecttype": "VELOSTATION", "Type_velo": "DUBBELZIJDIG", "Ligging": "VOETPAD", "Straatnaam": "Eksterlaar", "Huisnummer": "", "Aanvulling": "", "District": "Deurne", "Postcode": "2100", "Objectcode": "VE_0000313", "Gebruik": "IN_GEBRUIK", "Aantal_plaatsen": 36, "Naam": "313 Eksterlaar 1" }, "geometry": { "type": "Point", "coordinates": [ 4.470456334003085, 51.200513139173623 ] } },
{ "type": "Feature", "properties": { "OBJECTID": 8695, "Objecttype": "VELOSTATION", "Type_velo": "", "Ligging": "VOETPAD", "Straatnaam": "Eksterlaar", "Huisnummer": "", "Aanvulling": "", "District": "Deurne", "Postcode": "2100", "Objectcode": "VE_0000315", "Gebruik": "GEPLAND", "Aantal_plaatsen": 36, "Naam": "315 Eksterlaar 2" }, "geometry": { "type": "Point", "coordinates": [ 4.470293827990433, 51.199953240844906 ] } },
{ "type": "Feature", "properties": { "OBJECTID": 8696, "Objecttype": "VELOSTATION", "Type_velo": "DUBBELZIJDIG", "Ligging": "GROENZONE", "Straatnaam": "Schaliemolenstraat", "Huisnummer": "2", "Aanvulling": "to 2 od groenzone", "District": "Wilrijk", "Postcode": "2610", "Objectcode": "VE_0000319", "Gebruik": "IN_GEBRUIK", "Aantal_plaatsen": 30, "Naam": "319 Schalienmolen" }, "geometry": { "type": "Point", "coordinates": [ 4.405231916494762, 51.172827437980061 ] } },
{ "type": "Feature", "properties": { "OBJECTID": 8697, "Objecttype": "VELOSTATION", "Type_velo": "DUBBELZIJDIG", "Ligging": "VOETGANGERSZONE", "Straatnaam": "Kempenstraat", "Huisnummer": "nvt", "Aanvulling": "", "District": null, "Postcode": "2030", "Objectcode": "VE_0000128", "Gebruik": "IN_GEBRUIK", "Aantal_plaatsen": 36, "Naam": "128 ZNA Cadix" }, "geometry": { "type": "Point", "coordinates": [ 4.417306396730998, 51.23186432197457 ] } },
{ "type": "Feature", "properties": { "OBJECTID": 8698, "Objecttype": "VELOSTATION", "Type_velo": "DUBBELZIJDIG", "Ligging": "VOETPAD", "Straatnaam": "Jos Smolderenstraat", "Huisnummer": "", "Aanvulling": "", "District": "Antwerpen", "Postcode": "2000", "Objectcode": "VE_0000342", "Gebruik": "IN_GEBRUIK", "Aantal_plaatsen": 36, "Naam": "342 Nieuw Zuid" }, "geometry": { "type": "Point", "coordinates": [ 4.383378304845587, 51.206133407373137 ] } },
{ "type": "Feature", "properties": { "OBJECTID": 8699, "Objecttype": "VELOSTATION", "Type_velo": "DUBBELZIJDIG", "Ligging": "GROENZONE", "Straatnaam": "Ellermanstraat", "Huisnummer": "", "Aanvulling": "", "District": "Antwerpen", "Postcode": "2060", "Objectcode": "VE_0000164", "Gebruik": "IN_GEBRUIK", "Aantal_plaatsen": 36, "Naam": "164 AP Ellermanstraat" }, "geometry": { "type": "Point", "coordinates": [ 4.41506475205984, 51.229982082642934 ] } },
{ "type": "Feature", "properties": { "OBJECTID": 8700, "Objecttype": "VELOSTATION", "Type_velo": "DUBBELZIJDIG", "Ligging": "PLEIN", "Straatnaam": "Italiëlei", "Huisnummer": "", "Aanvulling": "", "District": "Antwerpen", "Postcode": "2000", "Objectcode": "VE_0000167", "Gebruik": "IN_GEBRUIK", "Aantal_plaatsen": 30, "Naam": "167 FOD Financiën 2" }, "geometry": { "type": "Point", "coordinates": [ 4.413311538589525, 51.228592664776173 ] } },
{ "type": "Feature", "properties": { "OBJECTID": 8701, "Objecttype": "VELOSTATION", "Type_velo": "ENKELZIJDIG", "Ligging": "VOETPAD", "Straatnaam": "Schoenmarkt", "Huisnummer": "", "Aanvulling": "", "District": "Antwerpen", "Postcode": "2000", "Objectcode": "VE_0000166", "Gebruik": "IN_GEBRUIK", "Aantal_plaatsen": 33, "Naam": "166 Schoenmarkt" }, "geometry": { "type": "Point", "coordinates": [ 4.402898200968446, 51.218271781204706 ] } },
{ "type": "Feature", "properties": { "OBJECTID": 8702, "Objecttype": "VELOSTATION", "Type_velo": "ENKELZIJDIG", "Ligging": "PLEIN", "Straatnaam": "Koningin Astridplein", "Huisnummer": "", "Aanvulling": "", "District": "Antwerpen", "Postcode": "2018", "Objectcode": "VE_0000171", "Gebruik": "IN_GEBRUIK", "Aantal_plaatsen": 12, "Naam": "171 Centraal station 3" }, "geometry": { "type": "Point", "coordinates": [ 4.420732687669174, 51.217853748553857 ] } },
{ "type": "Feature", "properties": { "OBJECTID": 8703, "Objecttype": "VELOSTATION", "Type_velo": "DUBBELZIJDIG", "Ligging": "VOETPAD", "Straatnaam": "Paardenmarkt", "Huisnummer": "43", "Aanvulling": "", "District": "Antwerpen", "Postcode": "2000", "Objectcode": "VE_0000165", "Gebruik": "IN_GEBRUIK", "Aantal_plaatsen": 36, "Naam": "165 Den Roscam" }, "geometry": { "type": "Point", "coordinates": [ 4.409111155407346, 51.22513798273102 ] } },
{ "type": "Feature", "properties": { "OBJECTID": 8704, "Objecttype": "VELOSTATION", "Type_velo": "ENKELZIJDIG", "Ligging": "PLEIN", "Straatnaam": "Koningin Astridplein", "Huisnummer": "", "Aanvulling": "", "District": "Antwerpen", "Postcode": "2018", "Objectcode": "VE_0000172", "Gebruik": "IN_GEBRUIK", "Aantal_plaatsen": 12, "Naam": "172 Centraal station 4" }, "geometry": { "type": "Point", "coordinates": [ 4.420649077080485, 51.217858192786331 ] } },
{ "type": "Feature", "properties": { "OBJECTID": 8705, "Objecttype": "VELOSTATION", "Type_velo": "DUBBELZIJDIG", "Ligging": "PARKEERZONE", "Straatnaam": "", "Huisnummer": "", "Aanvulling": "Spoor-Oost, ad fietsenstalling", "District": "Borgerhout", "Postcode": "2140", "Objectcode": "VE_0000306", "Gebruik": "BUITEN_GEBRUIK", "Aantal_plaatsen": 36, "Naam": "306 Spoor-Oost" }, "geometry": { "type": "Point", "coordinates": [ 4.445364835842754, 51.222820156757088 ] } },
{ "type": "Feature", "properties": { "OBJECTID": 8706, "Objecttype": "VELOSTATION", "Type_velo": "DUBBELZIJDIG", "Ligging": "VOETGANGERSZONE", "Straatnaam": "", "Huisnummer": "nvt", "Aanvulling": "", "District": "Antwerpen", "Postcode": "2030", "Objectcode": "VE_0000175", "Gebruik": "IN_GEBRUIK", "Aantal_plaatsen": 36, "Naam": "175 Asiadok" }, "geometry": { "type": "Point", "coordinates": [ 4.419855403219139, 51.235281439874946 ] } },
{ "type": "Feature", "properties": { "OBJECTID": 8707, "Objecttype": "VELOSTATION", "Type_velo": "ENKELZIJDIG", "Ligging": "VOETGANGERSZONE", "Straatnaam": "Franklin Rooseveltplaats", "Huisnummer": "nvt", "Aanvulling": "", "District": "Antwerpen", "Postcode": "2060", "Objectcode": "VE_0000173", "Gebruik": "IN_GEBRUIK", "Aantal_plaatsen": 36, "Naam": "173 Franklin Roosevelt" }, "geometry": { "type": "Point", "coordinates": [ 4.416759868101561, 51.219894800896427 ] } },
{ "type": "Feature", "properties": { "OBJECTID": 8708, "Objecttype": "VELOSTATION", "Type_velo": "ENKELZIJDIG", "Ligging": "VOETPAD", "Straatnaam": "Quellinstraat", "Huisnummer": "8A", "Aanvulling": null, "District": "Antwerpen", "Postcode": "2018", "Objectcode": "VE_0000170", "Gebruik": "IN_GEBRUIK", "Aantal_plaatsen": 21, "Naam": "170 Quellin" }, "geometry": { "type": "Point", "coordinates": [ 4.416515142827088, 51.217310367221508 ] } }
]
}
